$GPGGA,171912.000,5322.7881,N,01428.4401,E,1,8,0.92,41.9,M,42.0,M,,*66
$GPGSA,A,3,13,31,02,20,16,32,25,07,,,,,1.26,0.92,0.86*04
$GPGSV,3,1,11,23,75,075,17,13,72,232,31,04,54,267,16,20,42,115,24*7C
$GPGSV,3,2,11,25,38,170,39,02,25,312,25,32,19,108,19,07,18,180,30*76
$GPGSV,3,3,11,16,10,079,18,31,07,032,16,49,,,*76
$GPRMC,171912.000,A,5322.7881,N,01428.4401,E,0.33,133.74,260109,,,A*63
$GPVTG,133.74,T,,M,0.33,N,0.61,K,A*38
$GPGGA,171913.000,5322.7881,N,01428.4402,E,1,8,0.92,41.9,M,42.0,M,,*64
$GPGSA,A,3,13,31,02,20,16,32,25,07,,,,,1.26,0.92,0.86*04
$GPGSV,3,1,11,23,75,075,18,13,72,232,31,04,54,267,16,20,42,115,25*72
$GPGSV,3,2,11,25,38,170,39,02,25,312,25,32,19,108,19,07,18,180,30*76
$GPGSV,3,3,11,16,10,079,18,31,07,032,16,49,,,*76
$GPRMC,171913.000,A,5322.7881,N,01428.4402,E,0.46,119.89,260109,,,A*69
$GPVTG,119.89,T,,M,0.46,N,0.86,K,A*39
$GPGGA,171914.000,5322.7881,N,01428.4404,E,1,8,1.00,41.9,M,42.0,M,,*6F
$GPGSA,A,3,13,02,20,16,32,25,07,04,,,,,1.32,1.00,0.86*0D
$GPGSV,3,1,11,23,75,075,18,13,72,232,31,04,54,267,17,20,42,115,25*73
$GPGSV,3,2,11,25,38,170,39,02,25,312,25,32,19,108,18,07,18,180,30*77
$GPGSV,3,3,11,16,10,079,18,31,07,032,16,49,,,*76
$GPRMC,171914.000,A,5322.7881,N,01428.4404,E,0.38,110.76,260109,,,A*68
$GPVTG,110.76,T,,M,0.38,N,0.71,K,A*31
$GPGGA,171915.000,5322.7881,N,01428.4406,E,1,8,1.00,41.9,M,42.0,M,,*6C
$GPGSA,A,3,13,02,20,16,32,25,07,04,,,,,1.32,1.00,0.86*0D
$GPGSV,3,1,11,23,75,075,19,13,72,232,31,04,54,267,18,20,42,115,25*7D
$GPGSV,3,2,11,25,38,170,39,02,25,312,25,32,19,108,18,07,18,180,31*76
$GPGSV,3,3,11,16,10,079,18,31,07,032,15,51,,,*7C
$GPRMC,171915.000,A,5322.7881,N,01428.4406,E,0.41,100.90,260109,,,A*6C
$GPVTG,100.90,T,,M,0.41,N,0.76,K,A*31
$GPGGA,171916.000,5322.7881,N,01428.4408,E,1,8,0.92,41.9,M,42.0,M,,*6B
$GPGSA,A,3,13,31,02,20,16,32,25,07,,,,,1.26,0.92,0.86*04
$GPGSV,3,1,11,23,75,075,20,13,72,232,32,04,54,267,18,20,41,115,25*77
$GPGSV,3,2,11,25,38,170,39,02,25,312,25,32,19,108,18,07,18,180,31*76
$GPGSV,3,3,11,16,10,079,18,31,07,032,16,51,,,*7F
$GPRMC,171916.000,A,5322.7881,N,01428.4408,E,0.38,98.16,260109,,,A*51
$GPVTG,98.16,T,,M,0.38,N,0.70,K,A*07
$GPGGA,171917.000,5322.7881,N,01428.4410,E,1,8,0.94,41.9,M,42.0,M,,*65
$GPGSA,A,3,13,31,02,20,32,25,07,04,,,,,1.27,0.94,0.85*03
$GPGSV,3,1,11,23,75,075,20,13,72,232,32,04,54,267,19,20,41,115,25*76
$GPGSV,3,2,11,25,38,170,39,02,25,312,25,32,19,108,18,07,18,180,31*76
$GPGSV,3,3,11,16,10,079,17,31,07,032,16,51,,,*70
$GPRMC,171917.000,A,5322.7881,N,01428.4410,E,0.31,92.26,260109,,,A*59
$GPVTG,92.26,T,,M,0.31,N,0.57,K,A*02
$GPGGA,171918.000,5322.7881,N,01428.4411,E,1,8,1.00,41.9,M,42.0,M,,*67
$GPGSA,A,3,13,02,20,16,32,25,07,04,,,,,1.32,1.00,0.86*0D
$GPGSV,3,1,11,23,75,075,20,13,72,232,32,04,54,267,20,20,41,115,25*7C
$GPGSV,3,2,11,25,38,170,39,02,25,312,25,32,19,108,18,07,18,180,31*76
$GPGSV,3,3,11,16,10,079,16,31,07,032,16,51,,,*71
$GPRMC,171918.000,A,5322.7881,N,01428.4411,E,0.22,88.78,260109,,,A*55
$GPVTG,88.78,T,,M,0.22,N,0.41,K,A*07
$GPGGA,171919.000,5322.7881,N,01428.4412,E,1,8,1.00,41.9,M,42.0,M,,*65
$GPGSA,A,3,13,02,20,16,32,25,07,04,,,,,1.32,1.00,0.86*0D
$GPGSV,3,1,11,23,75,075,20,13,72,232,32,04,54,267,20,20,41,115,25*7C
$GPGSV,3,2,11,25,38,170,39,02,25,312,25,32,19,108,18,07,18,180,31*76
$GPGSV,3,3,11,16,10,079,16,31,07,032,16,51,,,*71
$GPRMC,171919.000,A,5322.7881,N,01428.4412,E,0.14,88.78,260109,,,A*52
$GPVTG,88.78,T,,M,0.14,N,0.27,K,A*02
$GPGGA,171920.000,5322.7881,N,01428.4413,E,1,8,0.94,41.9,M,42.0,M,,*62
$GPGSA,A,3,13,31,02,20,32,25,07,04,,,,,1.27,0.94,0.85*03
$GPGSV,3,1,11,23,75,075,20,13,72,232,32,04,54,267,20,20,41,115,25*7C
$GPGSV,3,2,11,25,38,170,39,02,25,312,25,32,19,108,17,07,18,180,31*79
$GPGSV,3,3,11,16,10,079,15,31,07,032,16,51,,,*72
$GPRMC,171920.000,A,5322.7881,N,01428.4413,E,0.17,88.78,260109,,,A*5A
$GPVTG,88.78,T,,M,0.17,N,0.32,K,A*05
$GPGGA,171921.000,5322.7881,N,01428.4414,E,1,8,0.92,41.9,M,42.0,M,,*62
$GPGSA,A,3,13,31,02,20,16,25,07,04,,,,,1.25,0.92,0.85*01
$GPGSV,3,1,11,23,75,075,20,13,72,232,32,04,54,267,21,20,41,115,25*7D
$GPGSV,3,2,11,25,38,170,39,02,25,312,24,32,19,108,16,07,18,180,31*79
$GPGSV,3,3,11,16,10,079,15,31,07,032,16,51,,,*72
$GPRMC,171921.000,A,5322.7881,N,01428.4414,E,0.17,88.78,260109,,,A*5C
$GPVTG,88.78,T,,M,0.17,N,0.32,K,A*05
$GPGGA,171922.000,5322.7881,N,01428.4415,E,1,8,1.00,41.9,M,42.0,M,,*6A
$GPGSA,A,3,13,02,20,16,32,25,07,04,,,,,1.32,1.00,0.86*0D
$GPGSV,3,1,11,23,75,075,19,13,72,232,33,04,54,267,22,20,41,115,25*75
$GPGSV,3,2,11,25,38,170,39,02,25,312,24,32,19,108,16,07,18,180,31*79
$GPGSV,3,3,11,16,10,079,15,31,07,032,16,51,,,*72
$GPRMC,171922.000,A,5322.7881,N,01428.4415,E,0.24,100.22,260109,,,A*60
$GPVTG,100.22,T,,M,0.24,N,0.44,K,A*3A
$GPGGA,171923.000,5322.7881,N,01428.4416,E,1,8,0.92,42.0,M,42.0,M,,*68
$GPGSA,A,3,13,31,02,20,16,25,07,04,,,,,1.25,0.92,0.85*01
$GPGSV,3,1,11,23,75,075,18,13,72,232,33,04,54,267,23,20,41,115,25*75
$GPGSV,3,2,11,25,38,170,39,02,25,312,24,32,19,108,16,07,18,180,31*79
$GPGSV,3,3,11,16,10,079,15,31,07,032,16,51,,,*72
$GPRMC,171923.000,A,5322.7881,N,01428.4416,E,0.27,106.89,260109,,,A*66
$GPVTG,106.89,T,,M,0.27,N,0.50,K,A*3B
$GPGGA,171924.000,5322.7881,N,01428.4417,E,1,8,0.94,42.0,M,42.0,M,,*68
$GPGSA,A,3,13,31,02,20,32,25,07,04,,,,,1.27,0.94,0.85*03
$GPGSV,3,1,11,23,75,075,17,13,72,232,33,04,54,267,23,20,41,115,25*7A
$GPGSV,3,2,11,25,38,170,39,02,25,312,24,32,19,108,16,07,18,180,31*79
$GPGSV,3,3,11,16,10,079,15,31,07,032,16,42,,,*70
$GPRMC,171924.000,A,5322.7881,N,01428.4417,E,0.16,106.89,260109,,,A*62
$GPVTG,106.89,T,,M,0.16,N,0.31,K,A*3E
$GPGGA,171925.000,5322.7881,N,01428.4418,E,1,9,0.87,42.0,M,42.0,M,,*65
$GPGSA,A,3,13,31,02,20,16,32,25,07,04,,,,1.22,0.87,0.85*03
$GPGSV,3,1,11,23,75,075,17,13,72,232,33,04,54,267,23,20,41,115,25*7A
$GPGSV,3,2,11,25,38,170,39,02,25,312,24,32,19,108,16,07,18,180,31*79
$GPGSV,3,3,11,16,10,079,15,31,07,032,16,42,,,*70
$GPRMC,171925.000,A,5322.7881,N,01428.4418,E,0.12,106.89,260109,,,A*68
$GPVTG,106.89,T,,M,0.12,N,0.22,K,A*38
$GPGGA,171926.000,5322.7881,N,01428.4418,E,1,8,0.94,42.0,M,42.0,M,,*65
$GPGSA,A,3,13,31,02,20,32,25,07,04,,,,,1.27,0.94,0.85*03
$GPGSV,3,1,11,23,75,075,17,13,72,232,33,04,54,267,23,20,41,115,25*7A
$GPGSV,3,2,11,25,38,170,39,02,25,312,24,32,19,108,16,07,18,180,31*79
$GPGSV,3,3,11,16,10,079,15,31,07,032,16,42,,,*70
$GPRMC,171926.000,A,5322.7881,N,01428.4418,E,0.27,86.18,260109,,,A*5C
$GPVTG,86.18,T,,M,0.27,N,0.51,K,A*0B
$GPGGA,171927.000,5322.7881,N,01428.4419,E,1,8,1.00,42.0,M,42.0,M,,*69
$GPGSA,A,3,13,02,20,16,32,25,07,04,,,,,1.32,1.00,0.86*0D
$GPGSV,3,1,11,23,75,075,17,13,72,232,33,04,54,267,24,20,41,115,25*7D
$GPGSV,3,2,11,25,38,170,39,02,25,312,25,32,19,108,16,07,18,180,31*78
$GPGSV,3,3,11,16,10,079,15,31,07,032,15,42,,,*73
$GPRMC,171927.000,A,5322.7881,N,01428.4419,E,0.22,82.22,260109,,,A*54
$GPVTG,82.22,T,,M,0.22,N,0.41,K,A*02
$GPGGA,171928.000,5322.7882,N,01428.4420,E,1,8,0.94,42.0,M,42.0,M,,*63
$GPGSA,A,3,13,31,02,20,32,25,07,04,,,,,1.27,0.94,0.85*03
$GPGSV,3,1,11,23,75,075,17,13,72,232,33,04,54,267,24,20,41,115,24*7C
$GPGSV,3,2,11,25,38,170,39,02,25,312,25,32,19,108,16,07,18,180,31*78
$GPGSV,3,3,11,16,10,079,15,31,07,032,15,42,,,*73
$GPRMC,171928.000,A,5322.7882,N,01428.4420,E,0.32,79.49,260109,,,A*5A
$GPVTG,79.49,T,,M,0.32,N,0.59,K,A*03
$GPGGA,171929.000,5322.7882,N,01428.4422,E,1,8,0.94,42.0,M,42.0,M,,*60
$GPGSA,A,3,13,31,02,20,32,25,07,04,,,,,1.27,0.94,0.85*03
$GPGSV,3,1,11,23,75,075,17,13,72,232,33,04,54,267,24,20,41,115,24*7C
$GPGSV,3,2,11,25,38,170,39,02,25,312,25,32,19,108,16,07,18,180,31*78
$GPGSV,3,3,11,16,10,079,,31,07,032,15,42,,,*77
$GPRMC,171929.000,A,5322.7882,N,01428.4422,E,0.39,84.69,260109,,,A*52
$GPVTG,84.69,T,,M,0.39,N,0.72,K,A*01
$GPGGA,171930.000,5322.7882,N,01428.4424,E,1,8,0.94,42.0,M,42.0,M,,*6E
$GPGSA,A,3,13,31,02,20,32,25,07,04,,,,,1.27,0.94,0.85*03
$GPGSV,3,1,11,23,75,075,17,13,72,232,33,04,54,267,25,20,41,115,24*7D
$GPGSV,3,2,11,25,38,170,39,02,25,312,25,32,19,108,16,07,18,180,31*78
$GPGSV,3,3,11,16,10,079,,31,07,032,15,42,,,*77
$GPRMC,171930.000,A,5322.7882,N,01428.4424,E,0.38,95.08,260109,,,A*5A
$GPVTG,95.08,T,,M,0.38,N,0.71,K,A*04
$GPGGA,171931.000,5322.7881,N,01428.4425,E,1,8,0.94,42.0,M,42.0,M,,*6D
$GPGSA,A,3,13,31,02,20,32,25,07,04,,,,,1.27,0.94,0.85*03
$GPGSV,3,1,11,23,75,075,18,13,72,232,33,04,54,267,25,20,41,115,23*75
$GPGSV,3,2,11,25,38,170,39,02,25,312,25,32,19,108,16,07,18,180,31*78
$GPGSV,3,3,11,16,10,079,,31,07,032,16,42,,,*74
$GPRMC,171931.000,A,5322.7881,N,01428.4425,E,0.24,102.73,260109,,,A*67
$GPVTG,102.73,T,,M,0.24,N,0.45,K,A*3D
$GPGGA,171932.000,5322.7881,N,01428.4426,E,1,8,0.94,42.0,M,42.0,M,,*6D
$GPGSA,A,3,13,31,02,20,32,25,07,04,,,,,1.27,0.94,0.85*03
$GPGSV,3,1,11,23,75,075,18,13,72,232,33,04,54,267,25,20,41,115,23*75
$GPGSV,3,2,11,25,38,170,39,02,25,312,26,32,19,108,16,07,18,180,31*7B
$GPGSV,3,3,11,16,10,079,,31,07,032,16,42,,,*74
$GPRMC,171932.000,A,5322.7881,N,01428.4426,E,0.23,105.04,260109,,,A*67
$GPVTG,105.04,T,,M,0.23,N,0.43,K,A*3B
$GPGGA,171933.000,5322.7881,N,01428.4427,E,1,8,1.00,42.0,M,42.0,M,,*61
$GPGSA,A,3,13,31,02,23,20,25,07,04,,,,,1.28,1.00,0.80*05
$GPGSV,3,1,11,23,75,075,19,13,72,232,33,04,54,267,25,20,41,115,22*75
$GPGSV,3,2,11,25,38,170,39,02,25,312,26,32,19,108,16,07,18,180,31*7B
$GPGSV,3,3,11,16,10,079,,31,07,032,16,50,,,*77
$GPRMC,171933.000,A,5322.7881,N,01428.4427,E,0.20,104.47,260109,,,A*62
$GPVTG,104.47,T,,M,0.20,N,0.36,K,A*3C
$GPGGA,171934.000,5322.7880,N,01428.4428,E,1,8,1.00,42.0,M,42.0,M,,*68
$GPGSA,A,3,13,31,02,23,20,25,07,04,,,,,1.28,1.00,0.80*05
$GPGSV,3,1,11,23,75,075,20,13,72,232,33,04,54,267,25,20,41,115,21*7C
$GPGSV,3,2,11,25,38,170,39,02,25,312,27,32,19,108,15,07,18,180,31*79
$GPGSV,3,3,11,16,10,079,,31,07,032,16,50,,,*77
$GPRMC,171934.000,A,5322.7880,N,01428.4428,E,0.26,107.08,260109,,,A*65
$GPVTG,107.08,T,,M,0.26,N,0.48,K,A*3B
$GPGGA,171935.000,5322.7880,N,01428.4429,E,1,8,1.00,42.0,M,42.0,M,,*68
$GPGSA,A,3,13,31,02,23,20,25,07,04,,,,,1.28,1.00,0.80*05
$GPGSV,3,1,11,23,75,075,21,13,72,232,33,04,54,267,25,20,41,115,20*7C
$GPGSV,3,2,11,25,38,170,39,02,25,312,27,07,19,180,31,32,19,108,15*78
$GPGSV,3,3,11,16,10,079,,31,07,032,16,50,,,*77
$GPRMC,171935.000,A,5322.7880,N,01428.4429,E,0.34,108.63,260109,,,A*64
$GPVTG,108.63,T,,M,0.34,N,0.62,K,A*32
$GPGGA,171936.000,5322.7880,N,01428.4430,E,1,8,1.00,42.0,M,42.0,M,,*63
$GPGSA,A,3,13,31,02,23,20,25,07,04,,,,,1.28,1.00,0.80*05
$GPGSV,3,1,11,23,75,075,22,13,72,232,33,04,54,267,25,20,41,115,20*7F
$GPGSV,3,2,11,25,38,170,39,02,25,312,27,07,19,180,31,32,19,108,15*78
$GPGSV,3,3,11,16,10,079,,31,07,032,16,50,,,*77
$GPRMC,171936.000,A,5322.7880,N,01428.4430,E,0.35,113.35,260109,,,A*67
$GPVTG,113.35,T,,M,0.35,N,0.65,K,A*3D
$GPGGA,171937.000,5322.7879,N,01428.4432,E,1,8,1.00,42.0,M,42.0,M,,*66
$GPGSA,A,3,13,31,02,23,20,25,07,04,,,,,1.28,1.00,0.80*05
$GPGSV,3,1,11,23,75,075,22,13,72,232,33,04,54,267,25,20,41,115,20*7F
$GPGSV,3,2,11,25,38,170,39,02,25,312,27,07,19,180,31,32,19,108,15*78
$GPGSV,3,3,11,16,10,079,,31,07,032,16,50,,,*77
$GPRMC,171937.000,A,5322.7879,N,01428.4432,E,0.39,119.01,260109,,,A*63
$GPVTG,119.01,T,,M,0.39,N,0.73,K,A*3B
$GPGGA,171938.000,5322.7878,N,01428.4433,E,1,8,1.00,42.0,M,42.0,M,,*69
$GPGSA,A,3,13,31,02,23,20,25,07,04,,,,,1.28,1.00,0.80*05
$GPGSV,3,1,11,23,75,075,22,13,72,232,33,04,54,267,25,20,41,115,20*7F
$GPGSV,3,2,11,25,38,170,39,02,25,312,27,07,19,180,31,32,19,108,15*78
$GPGSV,3,3,11,16,10,079,,31,07,032,16,50,,,*77
$GPRMC,171938.000,A,5322.7878,N,01428.4433,E,0.33,119.56,260109,,,A*64
$GPVTG,119.56,T,,M,0.33,N,0.61,K,A*30
$GPGGA,171939.000,5322.7878,N,01428.4434,E,1,8,1.00,42.0,M,42.0,M,,*6F
$GPGSA,A,3,13,31,02,23,20,25,07,04,,,,,1.28,1.00,0.80*05
$GPGSV,3,1,11,23,75,075,23,13,72,232,33,04,54,267,25,20,41,115,20*7E
$GPGSV,3,2,11,25,38,170,39,02,25,312,27,07,19,180,31,32,19,108,15*78
$GPGSV,3,3,11,16,10,079,,31,07,032,16,50,,,*77
$GPRMC,171939.000,A,5322.7878,N,01428.4434,E,0.27,118.02,260109,,,A*67
$GPVTG,118.02,T,,M,0.27,N,0.50,K,A*37
$GPGGA,171940.000,5322.7878,N,01428.4435,E,1,8,1.00,42.0,M,42.0,M,,*60
$GPGSA,A,3,13,31,02,23,20,25,07,04,,,,,1.28,1.00,0.80*05
$GPGSV,3,1,11,23,75,075,23,13,72,232,33,04,54,267,25,20,41,115,20*7E
$GPGSV,3,2,11,25,38,170,39,02,25,312,27,07,19,180,30,32,19,108,15*79
$GPGSV,3,3,11,16,10,079,,31,07,032,16,50,,,*77
$GPRMC,171940.000,A,5322.7878,N,01428.4435,E,0.12,118.02,260109,,,A*6E
$GPVTG,118.02,T,,M,0.12,N,0.23,K,A*35
$GPGGA,171941.000,5322.7878,N,01428.4436,E,1,8,1.00,42.0,M,42.0,M,,*62
$GPGSA,A,3,13,31,02,23,20,25,07,04,,,,,1.28,1.00,0.80*05
$GPGSV,3,1,11,23,75,075,23,13,73,232,33,04,54,267,24,20,41,115,20*7E
$GPGSV,3,2,11,25,38,170,39,02,25,312,27,07,19,180,29,32,19,108,*75
$GPGSV,3,3,11,16,10,079,,31,07,032,16,50,,,*77
$GPRMC,171941.000,A,5322.7878,N,01428.4436,E,0.24,123.97,260109,,,A*6D
$GPVTG,123.97,T,,M,0.24,N,0.45,K,A*34
$GPGGA,171942.000,5322.7877,N,01428.4436,E,1,8,1.00,42.0,M,42.0,M,,*6E
$GPGSA,A,3,13,31,02,23,20,25,07,04,,,,,1.28,1.00,0.80*05
$GPGSV,3,1,11,23,75,075,23,13,73,232,33,04,54,267,24,20,41,115,20*7E
$GPGSV,3,2,11,25,38,170,39,02,25,312,27,07,19,180,29,32,19,108,15*71
$GPGSV,3,3,11,16,10,079,,31,07,032,16,48,,,*7E
$GPRMC,171942.000,A,5322.7877,N,01428.4436,E,0.36,143.24,260109,,,A*6C
$GPVTG,143.24,T,,M,0.36,N,0.67,K,A*39
$GPGGA,171943.000,5322.7876,N,01428.4436,E,1,8,1.00,42.0,M,42.0,M,,*6E
$GPGSA,A,3,13,31,02,23,20,25,07,04,,,,,1.28,1.00,0.80*05
$GPGSV,3,1,11,23,75,075,23,13,73,232,32,04,54,267,24,20,41,115,20*7F
$GPGSV,3,2,11,25,38,170,39,02,25,312,27,07,19,180,29,32,19,108,16*72
$GPGSV,3,3,11,16,10,079,,31,07,032,16,48,,,*7E
$GPRMC,171943.000,A,5322.7876,N,01428.4436,E,0.46,164.03,260109,,,A*6B
$GPVTG,164.03,T,,M,0.46,N,0.85,K,A*32
$GPGGA,171944.000,5322.7875,N,01428.4435,E,1,8,0.94,42.0,M,42.0,M,,*65
$GPGSA,A,3,13,31,02,20,32,25,07,04,,,,,1.27,0.94,0.85*03
$GPGSV,3,1,11,23,75,075,22,13,73,232,32,04,54,267,25,20,41,115,19*75
$GPGSV,3,2,11,25,38,170,39,02,25,312,27,07,19,180,29,32,19,108,16*72
$GPGSV,3,3,11,16,10,079,,31,07,032,16,48,,,*7E
$GPRMC,171944.000,A,5322.7875,N,01428.4435,E,0.50,184.08,260109,,,A*6E
$GPVTG,184.08,T,,M,0.50,N,0.92,K,A*36
$GPGGA,171945.000,5322.7874,N,01428.4434,E,1,8,0.94,42.0,M,42.0,M,,*64
$GPGSA,A,3,13,31,02,20,32,25,07,04,,,,,1.27,0.94,0.85*03
$GPGSV,3,1,11,23,75,075,21,13,73,232,31,04,54,267,25,20,41,115,19*75
$GPGSV,3,2,11,25,38,170,39,02,25,312,27,07,19,180,29,32,19,108,15*71
$GPGSV,3,3,11,16,10,079,,31,07,032,16,48,,,*7E
$GPRMC,171945.000,A,5322.7874,N,01428.4434,E,0.55,197.18,260109,,,A*69
$GPVTG,197.18,T,,M,0.55,N,1.02,K,A*38
$GPGGA,171946.000,5322.7872,N,01428.4432,E,1,8,1.00,42.0,M,42.0,M,,*6B
$GPGSA,A,3,13,31,02,23,20,25,07,04,,,,,1.28,1.00,0.80*05
$GPGSV,3,1,11,23,75,075,21,13,73,232,31,04,54,267,25,20,41,115,19*75
$GPGSV,3,2,11,25,38,170,39,02,25,312,27,07,19,180,29,32,19,108,15*71
$GPGSV,3,3,11,16,10,079,,31,07,032,16,48,,,*7E
$GPRMC,171946.000,A,5322.7872,N,01428.4432,E,0.74,206.24,260109,,,A*6D
$GPVTG,206.24,T,,M,0.74,N,1.38,K,A*36
$GPGGA,171947.000,5322.7871,N,01428.4425,E,1,8,0.94,42.1,M,42.0,M,,*62
$GPGSA,A,3,13,31,02,20,32,25,07,04,,,,,1.27,0.94,0.85*03
$GPGSV,3,1,11,23,75,075,21,13,73,232,31,04,54,267,25,20,41,115,20*7F
$GPGSV,3,2,11,25,38,170,39,02,25,312,28,07,19,180,29,32,19,108,15*7E
$GPGSV,3,3,11,16,10,079,,31,07,032,16,48,,,27*7B
$GPRMC,171947.000,A,5322.7871,N,01428.4425,E,0.65,213.67,260109,,,A*6A
$GPVTG,213.67,T,,M,0.65,N,1.21,K,A*3D
$GPGGA,171948.000,5322.7868,N,01428.4426,E,1,9,0.92,42.1,M,42.0,M,,*61
$GPGSA,A,3,13,31,02,23,20,32,25,07,04,,,,1.21,0.92,0.79*01
$GPGSV,3,1,11,23,75,075,21,13,73,232,31,04,54,267,25,20,41,116,20*7C
$GPGSV,3,2,11,25,38,170,39,02,25,312,28,07,19,180,29,32,19,108,15*7E
$GPGSV,3,3,11,16,10,079,,31,07,032,16,48,,,27*7B
$GPRMC,171948.000,A,5322.7868,N,01428.4426,E,0.47,213.12,260109,,,A*6C
$GPVTG,213.12,T,,M,0.47,N,0.87,K,A*32
$GPGGA,171949.000,5322.7865,N,01428.4423,E,1,8,0.94,42.0,M,42.0,M,,*6E
$GPGSA,A,3,13,31,02,20,32,25,07,04,,,,,1.27,0.94,0.85*03
$GPGSV,3,1,11,23,75,075,21,13,73,232,31,04,54,267,25,20,41,116,20*7C
$GPGSV,3,2,11,25,38,170,39,02,25,312,28,07,19,180,29,32,19,108,16*7D
$GPGSV,3,3,11,16,10,079,,31,07,032,16,48,,,27*7B
$GPRMC,171949.000,A,5322.7865,N,01428.4423,E,0.21,209.45,260109,,,A*6C
$GPVTG,209.45,T,,M,0.21,N,0.39,K,A*3E
$GPGGA,171950.000,5322.7862,N,01428.4423,E,1,8,0.94,41.9,M,42.0,M,,*6B
$GPGSA,A,3,13,31,02,20,32,25,07,04,,,,,1.27,0.94,0.85*03
$GPGSV,3,1,11,23,75,075,21,13,73,232,31,04,54,267,25,20,41,116,21*7D
$GPGSV,3,2,11,25,38,170,39,02,25,312,28,07,19,180,28,32,19,108,16*7C
$GPGSV,3,3,11,16,10,079,,31,07,032,16,48,,,*7E
$GPRMC,171950.000,A,5322.7862,N,01428.4423,E,0.23,199.03,260109,,,A*69
$GPVTG,199.03,T,,M,0.23,N,0.43,K,A*39
$GPGGA,171951.000,5322.7860,N,01428.4425,E,1,9,0.92,41.8,M,42.0,M,,*68
$GPGSA,A,3,13,31,02,23,20,32,25,07,04,,,,1.21,0.92,0.79*01
$GPGSV,3,1,11,23,75,075,21,13,73,232,31,04,54,267,25,20,41,116,21*7D
$GPGSV,3,2,11,25,38,170,39,02,25,312,28,07,19,180,28,32,19,108,17*7D
$GPGSV,3,3,11,16,10,079,,31,07,032,16,35,,,*74
$GPRMC,171951.000,A,5322.7860,N,01428.4425,E,0.45,176.90,260109,,,A*67
$GPVTG,176.90,T,,M,0.45,N,0.83,K,A*3E
$GPGGA,171952.000,5322.7860,N,01428.4427,E,1,9,0.92,41.8,M,42.0,M,,*69
$GPGSA,A,3,13,31,02,23,20,32,25,07,04,,,,1.21,0.92,0.79*01
$GPGSV,3,1,11,23,75,075,21,13,73,232,30,04,54,267,25,20,41,116,21*7C
$GPGSV,3,2,11,25,38,170,39,02,25,312,27,07,19,180,28,32,19,108,17*72
$GPGSV,3,3,11,16,10,079,,31,07,032,16,35,,,*74
$GPRMC,171952.000,A,5322.7860,N,01428.4427,E,0.44,158.19,260109,,,A*6A
$GPVTG,158.19,T,,M,0.44,N,0.82,K,A*33
$GPGGA,171953.000,5322.7859,N,01428.4429,E,1,9,0.92,41.8,M,42.0,M,,*6C
$GPGSA,A,3,13,31,02,23,20,32,25,07,04,,,,1.21,0.92,0.79*01
$GPGSV,3,1,11,23,75,075,21,13,73,232,30,04,54,267,26,20,41,116,21*7F
$GPGSV,3,2,11,25,38,170,39,02,25,312,27,07,19,180,28,32,19,108,17*72
$GPGSV,3,3,11,16,10,079,,31,07,032,16,35,,,*74
$GPRMC,171953.000,A,5322.7859,N,01428.4429,E,0.49,143.38,260109,,,A*6B
$GPVTG,143.38,T,,M,0.49,N,0.90,K,A*34
$GPGGA,171954.000,5322.7858,N,01428.4431,E,1,9,0.92,41.8,M,42.0,M,,*63
$GPGSA,A,3,13,31,02,23,20,32,25,07,04,,,,1.21,0.92,0.79*01
$GPGSV,3,1,11,23,75,075,21,13,73,232,30,04,54,267,26,20,41,116,21*7F
$GPGSV,3,2,11,25,38,170,39,02,25,312,27,07,19,180,28,32,19,108,17*72
$GPGSV,3,3,11,16,10,079,,31,07,032,16,35,,,*74
$GPRMC,171954.000,A,5322.7858,N,01428.4431,E,0.50,131.21,260109,,,A*61
$GPVTG,131.21,T,,M,0.50,N,0.92,K,A*33
$GPGGA,171955.000,5322.7858,N,01428.4433,E,1,9,0.92,41.9,M,42.0,M,,*61
$GPGSA,A,3,13,31,02,23,20,32,25,07,04,,,,1.21,0.92,0.79*01
$GPGSV,3,1,11,23,75,075,21,13,73,232,30,04,54,267,27,20,41,116,22*7D
$GPGSV,3,2,11,25,38,170,39,02,25,312,27,07,19,180,28,32,19,108,17*72
$GPGSV,3,3,11,16,10,079,,31,07,032,16,35,,,*74
$GPRMC,171955.000,A,5322.7858,N,01428.4433,E,0.46,122.57,260109,,,A*66
$GPVTG,122.57,T,,M,0.46,N,0.86,K,A*32
$GPGGA,171956.000,5322.7858,N,01428.4435,E,1,10,0.86,41.9,M,42.0,M,,*59
$GPGSA,A,3,13,31,02,23,20,16,32,25,07,04,,,1.17,0.86,0.79*06
$GPGSV,3,1,11,23,75,075,22,13,73,232,30,04,54,267,27,20,41,116,22*7E
$GPGSV,3,2,11,25,38,170,39,02,25,312,27,07,19,180,28,32,19,108,18*7D
$GPGSV,3,3,11,16,10,079,16,31,07,032,16,35,,,*73
$GPRMC,171956.000,A,5322.7858,N,01428.4435,E,0.37,118.99,260109,,,A*6E
$GPVTG,118.99,T,,M,0.37,N,0.68,K,A*3F
$GPGGA,171957.000,5322.7857,N,01428.4437,E,1,10,0.86,41.9,M,42.0,M,,*55
$GPGSA,A,3,13,31,02,23,20,16,32,25,07,04,,,1.17,0.86,0.78*07
$GPGSV,3,1,11,23,75,075,23,13,73,232,30,04,54,267,28,20,41,116,23*71
$GPGSV,3,2,11,25,38,170,39,02,25,312,27,07,19,180,28,32,19,108,18*7D
$GPGSV,3,3,11,16,10,079,17,31,07,032,16,35,,,*72
$GPRMC,171957.000,A,5322.7857,N,01428.4437,E,0.37,120.99,260109,,,A*69
$GPVTG,120.99,T,,M,0.37,N,0.69,K,A*35
$GPGGA,171958.000,5322.7857,N,01428.4438,E,1,9,0.98,41.9,M,42.0,M,,*62
$GPGSA,A,3,13,02,23,20,16,32,25,07,04,,,,1.27,0.98,0.80*0E
$GPGSV,3,1,11,23,75,075,23,13,73,232,30,04,54,267,28,20,41,116,24*76
$GPGSV,3,2,11,25,38,170,39,02,25,312,26,07,19,180,28,32,19,108,18*7C
$GPGSV,3,3,11,16,10,079,17,31,07,032,15,35,,,*71
$GPRMC,171958.000,A,5322.7857,N,01428.4438,E,0.29,119.25,260109,,,A*6B
$GPVTG,119.25,T,,M,0.29,N,0.54,K,A*39
$GPGGA,171959.000,5322.7857,N,01428.4440,E,1,10,0.86,41.9,M,42.0,M,,*5B
$GPGSA,A,3,13,31,02,23,20,16,32,25,07,04,,,1.17,0.86,0.78*07
$GPGSV,3,1,11,23,75,075,23,13,73,232,30,04,54,267,28,20,41,116,24*76
$GPGSV,3,2,11,25,38,170,39,02,25,312,25,07,19,180,28,32,19,108,18*7F
$GPGSV,3,3,11,16,10,079,16,31,07,032,16,35,,,*73
$GPRMC,171959.000,A,5322.7857,N,01428.4440,E,0.46,109.77,260109,,,A*6A
$GPVTG,109.77,T,,M,0.46,N,0.85,K,A*3A
$GPGGA,172000.000,5322.7857,N,01428.4442,E,1,10,0.86,41.9,M,42.0,M,,*5F
$GPGSA,A,3,13,31,02,23,20,16,32,25,07,04,,,1.17,0.86,0.79*06
$GPGSV,3,1,11,23,75,075,23,13,73,232,30,04,54,267,28,20,41,116,24*76
$GPGSV,3,2,11,25,38,170,39,02,25,312,24,07,19,180,28,32,19,108,18*7E
$GPGSV,3,3,11,16,10,079,16,31,07,032,16,47,,,*76
$GPRMC,172000.000,A,5322.7857,N,01428.4442,E,0.41,100.89,260109,,,A*61
$GPVTG,100.89,T,,M,0.41,N,0.77,K,A*38
$GPGGA,172001.000,5322.7857,N,01428.4444,E,1,10,0.86,41.9,M,42.0,M,,*58
$GPGSA,A,3,13,31,02,23,20,16,32,25,07,04,,,1.17,0.86,0.79*06
$GPGSV,3,1,11,23,75,075,24,13,73,232,30,04,54,267,28,20,41,116,25*70
$GPGSV,3,2,11,25,38,170,39,02,25,312,24,07,19,180,28,32,19,108,18*7E
$GPGSV,3,3,11,16,10,079,16,31,07,032,16,47,,,*76
$GPRMC,172001.000,A,5322.7857,N,01428.4444,E,0.29,92.76,260109,,,A*52
$GPVTG,92.76,T,,M,0.29,N,0.55,K,A*0C
$GPGGA,172002.000,5322.7857,N,01428.4445,E,1,9,0.98,41.9,M,42.0,M,,*6D
$GPGSA,A,3,13,02,23,20,16,32,25,07,04,,,,1.27,0.98,0.80*0E
$GPGSV,3,1,11,23,75,075,24,13,73,232,30,04,54,267,28,20,41,116,25*70
$GPGSV,3,2,11,25,38,170,39,02,25,312,24,07,19,180,28,32,19,108,18*7E
$GPGSV,3,3,11,16,10,079,16,31,07,032,16,47,,,*76
$GPRMC,172002.000,A,5322.7857,N,01428.4445,E,0.34,89.93,260109,,,A*5D
$GPVTG,89.93,T,,M,0.34,N,0.63,K,A*04
$GPGGA,172003.000,5322.7858,N,01428.4447,E,1,10,0.86,41.9,M,42.0,M,,*56
$GPGSA,A,3,13,31,02,23,20,16,32,25,07,04,,,1.17,0.86,0.79*06
$GPGSV,3,1,11,23,75,075,24,13,73,232,30,04,54,267,28,20,41,116,25*70
$GPGSV,3,2,11,25,38,170,39,02,25,312,23,07,19,180,28,32,19,108,18*79
$GPGSV,3,3,11,16,10,079,16,31,07,032,16,47,,,*76
$GPRMC,172003.000,A,5322.7858,N,01428.4447,E,0.53,80.50,260109,,,A*56
$GPVTG,80.50,T,,M,0.53,N,0.99,K,A*06
$GPGGA,172004.000,5322.7858,N,01428.4449,E,1,10,0.86,41.9,M,42.0,M,,*5F
$GPGSA,A,3,13,31,02,23,20,16,32,25,07,04,,,1.17,0.86,0.79*06
$GPGSV,3,1,11,23,75,075,24,13,73,232,30,04,54,266,28,20,41,116,24*70
$GPGSV,3,2,11,25,38,170,39,02,25,312,23,07,19,180,28,32,19,108,18*79
$GPGSV,3,3,11,16,10,079,17,31,07,032,16,47,,,*77
$GPRMC,172004.000,A,5322.7858,N,01428.4449,E,0.47,79.85,260109,,,A*54
$GPVTG,79.85,T,,M,0.47,N,0.87,K,A*02
$GPGGA,172005.000,5322.7859,N,01428.4451,E,1,10,0.86,41.9,M,42.0,M,,*56
$GPGSA,A,3,13,31,02,23,20,16,32,25,07,04,,,1.17,0.86,0.79*06
$GPGSV,3,1,11,23,75,075,24,13,73,232,30,04,54,266,28,20,41,116,24*70
$GPGSV,3,2,11,25,38,170,39,02,25,312,22,07,19,180,28,32,19,108,18*78
$GPGSV,3,3,11,16,10,079,17,31,07,032,16,47,,,*77
$GPRMC,172005.000,A,5322.7859,N,01428.4451,E,0.50,74.98,260109,,,A*5A
$GPVTG,74.98,T,,M,0.50,N,0.93,K,A*00
$GPGGA,172006.000,5322.7859,N,01428.4453,E,1,9,0.98,41.9,M,42.0,M,,*60
$GPGSA,A,3,13,02,23,20,16,32,25,07,04,,,,1.27,0.98,0.80*0E
$GPGSV,3,1,11,23,75,075,24,13,73,232,30,04,54,266,28,20,41,116,24*70
$GPGSV,3,2,11,25,38,170,39,02,25,312,22,07,19,180,28,32,19,108,18*78
$GPGSV,3,3,11,16,10,079,18,31,07,032,15,47,,,*7B
$GPRMC,172006.000,A,5322.7859,N,01428.4453,E,0.52,64.80,260109,,,A*51
$GPVTG,64.80,T,,M,0.52,N,0.97,K,A*0E
$GPGGA,172007.000,5322.7861,N,01428.4455,E,1,9,0.98,41.9,M,42.0,M,,*6C
$GPGSA,A,3,13,02,23,20,16,32,25,07,04,,,,1.27,0.98,0.80*0E
$GPGSV,3,1,11,23,75,075,24,13,73,232,30,04,54,266,28,20,41,116,24*70
$GPGSV,3,2,11,25,38,170,39,02,25,312,21,07,19,180,28,32,19,108,18*7B
$GPGSV,3,3,11,16,10,079,18,31,07,032,15,47,,,*7B
$GPRMC,172007.000,A,5322.7861,N,01428.4455,E,0.60,57.60,260109,,,A*52
$GPVTG,57.60,T,,M,0.60,N,1.11,K,A*0E
$GPGGA,172008.000,5322.7866,N,01428.4457,E,1,9,0.98,41.6,M,42.0,M,,*69
$GPGSA,A,3,13,02,23,20,16,32,25,07,04,,,,1.27,0.98,0.80*0E
$GPGSV,3,1,11,23,75,075,24,13,73,232,31,04,54,266,28,20,41,116,23*76
$GPGSV,3,2,11,25,38,170,39,02,25,312,21,07,19,180,28,32,19,108,18*7B
$GPGSV,3,3,11,16,10,079,18,31,07,032,15,47,,,*7B
$GPRMC,172008.000,A,5322.7866,N,01428.4457,E,0.38,54.57,260109,,,A*52
$GPVTG,54.57,T,,M,0.38,N,0.71,K,A*03
$GPGGA,172009.000,5322.7869,N,01428.4459,E,1,9,0.98,41.4,M,42.0,M,,*6B
$GPGSA,A,3,13,02,23,20,16,32,25,07,04,,,,1.27,0.98,0.80*0E
$GPGSV,3,1,11,23,75,075,24,13,73,232,32,04,54,266,28,20,41,116,22*74
$GPGSV,3,2,11,25,38,170,39,02,25,312,21,33,23,215,,07,19,180,28*75
$GPGSV,3,3,11,32,19,108,19,16,10,079,18,31,07,032,15*40
$GPRMC,172009.000,A,5322.7869,N,01428.4459,E,0.40,51.66,260109,,,A*5A
$GPVTG,51.66,T,,M,0.40,N,0.74,K,A*0E
$GPGGA,172010.000,5322.7872,N,01428.4462,E,1,9,1.03,41.1,M,42.0,M,,*67
$GPGSA,A,3,13,31,23,20,16,32,25,07,04,,,,1.31,1.03,0.81*0B
$GPGSV,3,1,11,23,75,075,24,13,73,232,32,04,54,266,28,20,41,116,21*77
$GPGSV,3,2,11,25,38,170,39,02,25,312,20,33,23,215,,07,19,180,28*74
$GPGSV,3,3,11,32,19,108,19,16,10,079,18,31,07,032,15*40
$GPRMC,172010.000,A,5322.7872,N,01428.4462,E,0.33,49.67,260109,,,A*5C
$GPVTG,49.67,T,,M,0.33,N,0.61,K,A*06
$GPGGA,172011.000,5322.7875,N,01428.4463,E,1,9,0.98,40.7,M,42.0,M,,*64
$GPGSA,A,3,13,02,23,20,16,32,25,07,04,,,,1.27,0.98,0.80*0E
$GPGSV,3,1,11,23,75,075,24,13,73,232,32,04,54,266,28,20,41,116,20*76
$GPGSV,3,2,11,25,38,170,39,02,25,312,20,33,23,215,,07,19,180,28*74
$GPGSV,3,3,11,32,19,108,19,16,10,079,18,31,07,032,15*40
$GPRMC,172011.000,A,5322.7875,N,01428.4463,E,0.41,48.94,260109,,,A*53
$GPVTG,48.94,T,,M,0.41,N,0.76,K,A*08
$GPGGA,172012.000,5322.7876,N,01428.4465,E,1,9,0.98,40.7,M,42.0,M,,*62
$GPGSA,A,3,13,02,23,20,16,32,25,07,04,,,,1.27,0.98,0.80*0E
$GPGSV,3,1,11,23,75,075,24,13,73,232,33,04,54,266,28,20,41,116,20*77
$GPGSV,3,2,11,25,38,170,39,02,25,312,20,33,23,215,,07,19,180,28*74
$GPGSV,3,3,11,32,19,108,20,16,10,079,18,31,07,032,15*4A
$GPRMC,172012.000,A,5322.7876,N,01428.4465,E,0.46,43.33,260109,,,A*54
$GPVTG,43.33,T,,M,0.46,N,0.86,K,A*06
$GPGGA,172013.000,5322.7877,N,01428.4466,E,1,10,0.86,40.7,M,42.0,M,,*56
$GPGSA,A,3,13,31,02,23,20,16,32,25,07,04,,,1.17,0.86,0.79*06
$GPGSV,3,1,11,23,75,075,24,13,73,232,34,04,54,266,28,20,41,116,20*70
$GPGSV,3,2,11,25,38,170,39,02,25,312,20,33,23,215,,07,19,180,28*74
$GPGSV,3,3,11,32,19,108,21,16,10,079,18,31,07,032,15*4B
$GPRMC,172013.000,A,5322.7877,N,01428.4466,E,0.47,32.52,260109,,,A*57
$GPVTG,32.52,T,,M,0.47,N,0.88,K,A*08
$GPGGA,172014.000,5322.7879,N,01428.4466,E,1,8,1.22,40.7,M,42.0,M,,*69
$GPGSA,A,3,13,31,23,16,32,25,07,04,,,,,1.94,1.22,1.51*09
$GPGSV,3,1,11,23,75,075,25,13,73,232,34,04,54,266,28,20,41,116,19*7B
$GPGSV,3,2,11,25,38,170,39,02,25,312,20,33,23,215,,07,19,180,28*74
$GPGSV,3,3,11,32,19,108,21,16,10,079,18,31,07,032,15*4B
$GPRMC,172014.000,A,5322.7879,N,01428.4466,E,0.32,25.01,260109,,,A*5C
$GPVTG,25.01,T,,M,0.32,N,0.60,K,A*0C
$GPGGA,172015.000,5322.7879,N,01428.4466,E,1,10,0.91,40.7,M,42.0,M,,*58
$GPGSA,A,3,13,31,02,23,20,16,32,25,07,04,,,1.56,0.91,1.27*0F
$GPGSV,3,1,11,23,75,075,25,13,73,232,34,04,54,266,28,20,41,116,18*7A
$GPGSV,3,2,11,25,38,170,39,02,25,312,20,33,23,215,,07,19,180,28*74
$GPGSV,3,3,11,32,19,108,22,16,10,079,18,31,07,032,16*4B
$GPRMC,172015.000,A,5322.7879,N,01428.4466,E,0.31,24.55,260109,,,A*5E
$GPVTG,24.55,T,,M,0.31,N,0.58,K,A*04
$GPGGA,172016.000,5322.7880,N,01428.4466,E,1,9,0.89,40.7,M,42.0,M,,*6C
$GPGSA,A,3,13,31,02,23,16,32,25,07,04,,,,1.20,0.89,0.80*09
$GPGSV,3,1,11,23,75,075,25,13,73,232,34,04,54,266,28,20,41,116,18*7A
$GPGSV,3,2,11,25,38,170,39,02,25,312,20,33,23,215,,07,19,180,28*74
$GPGSV,3,3,11,32,19,108,22,16,10,078,18,31,07,032,16*4A
$GPRMC,172016.000,A,5322.7880,N,01428.4466,E,0.11,24.55,260109,,,A*59
$GPVTG,24.55,T,,M,0.11,N,0.20,K,A*09
$GPGGA,172017.000,5322.7880,N,01428.4466,E,1,9,0.89,40.6,M,42.0,M,,*6C
$GPGSA,A,3,13,31,02,23,16,32,25,07,04,,,,1.20,0.89,0.80*09
$GPGSV,3,1,11,23,75,075,25,13,73,232,34,04,54,266,28,20,41,116,18*7A
$GPGSV,3,2,11,25,38,170,39,02,25,312,20,33,23,215,,07,19,180,28*74
$GPGSV,3,3,11,32,19,108,23,16,10,078,18,31,07,032,16*4B
$GPRMC,172017.000,A,5322.7880,N,01428.4466,E,0.13,24.55,260109,,,A*5A
$GPVTG,24.55,T,,M,0.13,N,0.24,K,A*0F
$GPGGA,172018.000,5322.7880,N,01428.4466,E,1,9,0.89,40.6,M,42.0,M,,*63
$GPGSA,A,3,13,31,02,23,16,32,25,07,04,,,,1.20,0.89,0.80*09
$GPGSV,3,1,11,23,75,075,26,13,73,232,34,04,54,266,28,20,41,116,17*76
$GPGSV,3,2,11,25,38,170,39,02,25,312,20,33,23,215,,07,19,180,28*74
$GPGSV,3,3,11,32,19,108,23,16,10,078,18,31,07,032,16*4B
$GPRMC,172018.000,A,5322.7880,N,01428.4466,E,0.19,24.55,260109,,,A*5F
$GPVTG,24.55,T,,M,0.19,N,0.35,K,A*05
$GPGGA,172019.000,5322.7880,N,01428.4466,E,1,9,0.89,40.6,M,42.0,M,,*62
$GPGSA,A,3,13,31,02,23,16,32,25,07,04,,,,1.20,0.89,0.80*09
$GPGSV,3,1,11,23,75,075,27,13,73,232,35,04,54,266,28,20,41,116,16*77
$GPGSV,3,2,11,25,38,170,39,02,25,312,20,33,23,215,,07,19,180,28*74
$GPGSV,3,3,11,32,19,108,23,16,10,078,18,31,07,032,16*4B
$GPRMC,172019.000,A,5322.7880,N,01428.4466,E,0.12,24.55,260109,,,A*55
$GPVTG,24.55,T,,M,0.12,N,0.21,K,A*0B
$GPGGA,172020.000,5322.7879,N,01428.4465,E,1,9,0.89,40.6,M,42.0,M,,*6D
$GPGSA,A,3,13,31,02,23,16,32,25,07,04,,,,1.20,0.89,0.80*09
$GPGSV,3,1,11,23,75,075,28,13,73,232,35,04,54,266,28,20,41,116,15*7B
$GPGSV,3,2,11,25,38,170,39,02,25,312,21,33,23,215,,07,19,180,28*75
$GPGSV,3,3,11,32,19,108,24,16,10,078,18,31,07,032,16*4C
$GPRMC,172020.000,A,5322.7879,N,01428.4465,E,0.17,24.55,260109,,,A*5F
$GPVTG,24.55,T,,M,0.17,N,0.31,K,A*0F
$GPGGA,172021.000,5322.7879,N,01428.4465,E,1,9,0.89,40.6,M,42.0,M,,*6C
$GPGSA,A,3,13,31,02,23,16,32,25,07,04,,,,1.20,0.89,0.80*09
$GPGSV,3,1,11,23,75,075,28,13,73,232,35,04,54,266,28,20,41,116,15*7B
$GPGSV,3,2,11,25,38,170,39,02,25,312,21,37,21,172,,07,19,180,28*71
$GPGSV,3,3,11,32,19,108,24,16,10,078,18,31,07,032,16*4C
$GPRMC,172021.000,A,5322.7879,N,01428.4465,E,0.02,24.55,260109,,,A*5A
$GPVTG,24.55,T,,M,0.02,N,0.04,K,A*0D
$GPGGA,172022.000,5322.7879,N,01428.4465,E,1,9,0.89,40.5,M,42.0,M,,*6C
$GPGSA,A,3,13,31,02,23,16,32,25,07,04,,,,1.20,0.89,0.80*09
$GPGSV,3,1,11,23,75,075,28,13,73,232,35,04,54,266,28,20,41,116,15*7B
$GPGSV,3,2,11,25,38,170,39,02,25,312,21,37,21,172,,07,19,180,28*71
$GPGSV,3,3,11,32,19,108,24,16,10,078,18,31,07,032,16*4C
$GPRMC,172022.000,A,5322.7879,N,01428.4465,E,0.19,24.55,260109,,,A*53
$GPVTG,24.55,T,,M,0.19,N,0.35,K,A*05
$GPGGA,172023.000,5322.7879,N,01428.4465,E,1,9,0.89,40.5,M,42.0,M,,*6D
$GPGSA,A,3,13,31,02,23,16,32,25,07,04,,,,1.20,0.89,0.80*09
$GPGSV,3,1,11,23,75,075,29,13,73,232,35,04,54,266,28,20,41,116,*7E
$GPGSV,3,2,11,25,38,170,39,02,25,312,21,37,21,172,,07,19,180,28*71
$GPGSV,3,3,11,32,19,108,24,16,10,078,18,31,07,032,16*4C
$GPRMC,172023.000,A,5322.7879,N,01428.4465,E,0.19,24.55,260109,,,A*52
$GPVTG,24.55,T,,M,0.19,N,0.36,K,A*06
$GPGGA,172024.000,5322.7880,N,01428.4466,E,1,9,0.89,40.5,M,42.0,M,,*6F
$GPGSA,A,3,13,31,02,23,16,32,25,07,04,,,,1.20,0.89,0.80*09
$GPGSV,3,1,11,23,75,075,29,13,73,232,35,04,54,266,28,20,41,116,*7E
$GPGSV,3,2,11,25,38,170,39,02,25,312,21,37,21,172,27,07,19,180,28*74
$GPGSV,3,3,11,32,19,108,24,16,10,078,18,31,07,032,16*4C
$GPRMC,172024.000,A,5322.7880,N,01428.4466,E,0.11,24.55,260109,,,A*58
$GPVTG,24.55,T,,M,0.11,N,0.21,K,A*08
$GPGGA,172025.000,5322.7880,N,01428.4466,E,1,9,0.89,40.5,M,42.0,M,,*6E
$GPGSA,A,3,13,31,02,23,16,32,25,07,04,,,,1.20,0.89,0.80*09
$GPGSV,3,1,11,23,75,075,30,13,73,232,35,04,54,266,28,20,41,116,*76
$GPGSV,3,2,11,25,38,170,38,02,25,312,22,37,21,172,27,07,19,180,28*76
$GPGSV,3,3,11,32,19,108,24,16,10,078,18,31,07,032,16*4C
$GPRMC,172025.000,A,5322.7880,N,01428.4466,E,0.08,24.55,260109,,,A*51
$GPVTG,24.55,T,,M,0.08,N,0.15,K,A*07
$GPGGA,172026.000,5322.7880,N,01428.4466,E,1,9,0.89,40.5,M,42.0,M,,*6D
$GPGSA,A,3,13,31,02,23,16,32,25,07,04,,,,1.20,0.89,0.80*09
$GPGSV,3,1,11,23,75,075,30,13,73,232,35,04,54,266,28,20,41,116,*76
$GPGSV,3,2,11,25,38,170,38,02,25,312,22,37,21,172,27,07,19,180,28*76
$GPGSV,3,3,11,32,19,108,24,16,10,078,18,31,07,032,16*4C
$GPRMC,172026.000,A,5322.7880,N,01428.4466,E,0.10,24.55,260109,,,A*5B
$GPVTG,24.55,T,,M,0.10,N,0.19,K,A*02
$GPGGA,172027.000,5322.7880,N,01428.4467,E,1,9,0.89,40.5,M,42.0,M,,*6D
$GPGSA,A,3,13,31,02,23,16,32,25,07,04,,,,1.20,0.89,0.80*09
$GPGSV,3,1,11,23,75,075,30,13,73,232,35,04,54,266,28,20,41,116,16*71
$GPGSV,3,2,11,25,38,170,38,02,25,312,22,37,21,172,27,07,19,180,28*76
$GPGSV,3,3,11,32,19,108,25,16,10,078,19,31,07,032,16*4C
$GPRMC,172027.000,A,5322.7880,N,01428.4467,E,0.05,24.55,260109,,,A*5F
$GPVTG,24.55,T,,M,0.05,N,0.10,K,A*0F
$GPGGA,172028.000,5322.7880,N,01428.4467,E,1,10,0.86,40.5,M,42.0,M,,*55
$GPGSA,A,3,13,31,02,23,20,16,32,25,07,04,,,1.17,0.86,0.79*06
$GPGSV,3,1,11,23,75,075,30,13,73,232,35,04,54,266,27,20,41,116,17*7F
$GPGSV,3,2,11,25,38,170,38,02,25,312,23,37,21,172,,07,19,180,28*72
$GPGSV,3,3,11,32,19,108,25,16,10,078,20,31,07,032,16*46
$GPRMC,172028.000,A,5322.7880,N,01428.4467,E,0.18,24.55,260109,,,A*5C
$GPVTG,24.55,T,,M,0.18,N,0.33,K,A*02
$GPGGA,172029.000,5322.7880,N,01428.4466,E,1,10,0.86,40.4,M,42.0,M,,*54
$GPGSA,A,3,13,31,02,23,20,16,32,25,07,04,,,1.17,0.86,0.79*06
$GPGSV,3,1,11,23,75,075,30,13,73,232,35,04,54,266,27,20,41,116,17*7F
$GPGSV,3,2,11,25,38,170,38,02,25,312,24,37,21,172,27,07,19,180,29*71
$GPGSV,3,3,11,32,19,108,25,16,10,078,20,31,07,032,16*46
$GPRMC,172029.000,A,5322.7880,N,01428.4466,E,0.18,24.55,260109,,,A*5C
$GPVTG,24.55,T,,M,0.18,N,0.34,K,A*05
$GPGGA,172030.000,5322.7881,N,01428.4465,E,1,10,0.86,40.4,M,42.0,M,,*5E
$GPGSA,A,3,13,31,02,23,20,16,32,25,07,04,,,1.17,0.86,0.79*06
$GPGSV,3,1,11,23,75,075,30,13,73,232,35,04,54,266,26,20,41,116,17*7E
$GPGSV,3,2,11,25,38,170,38,02,25,312,24,37,21,172,27,07,19,180,29*71
$GPGSV,3,3,11,32,19,108,25,16,10,078,21,31,07,032,17*46
$GPRMC,172030.000,A,5322.7881,N,01428.4465,E,0.10,24.55,260109,,,A*5E
$GPVTG,24.55,T,,M,0.10,N,0.18,K,A*03
$GPGGA,172031.000,5322.7881,N,01428.4465,E,1,10,0.86,40.4,M,42.0,M,,*5F
$GPGSA,A,3,13,31,02,23,20,16,32,25,07,04,,,1.17,0.86,0.79*06
$GPGSV,3,1,11,23,75,075,30,13,73,232,35,04,54,266,26,20,41,116,17*7E
$GPGSV,3,2,11,25,38,170,38,02,25,312,24,37,21,172,,07,19,180,29*74
$GPGSV,3,3,11,32,19,108,25,16,10,078,22,31,07,032,17*45
$GPRMC,172031.000,A,5322.7881,N,01428.4465,E,0.15,24.55,260109,,,A*5A
$GPVTG,24.55,T,,M,0.15,N,0.29,K,A*04
$GPGGA,172032.000,5322.7881,N,01428.4465,E,1,10,0.91,40.4,M,42.0,M,,*5A
$GPGSA,A,3,13,31,02,23,20,16,32,25,07,04,,,1.56,0.91,1.27*0F
$GPGSV,3,1,11,23,75,075,30,13,73,232,35,04,54,266,26,20,41,116,17*7E
$GPGSV,3,2,11,25,38,170,38,02,25,312,24,37,21,172,,07,19,180,29*74
$GPGSV,3,3,11,32,18,108,25,16,10,078,22,31,07,032,17*44
$GPRMC,172032.000,A,5322.7881,N,01428.4465,E,0.20,336.25,260109,,,A*68
$GPVTG,336.25,T,,M,0.20,N,0.37,K,A*3A
$GPGGA,172033.000,5322.7882,N,01428.4464,E,1,10,0.86,40.4,M,42.0,M,,*5F
$GPGSA,A,3,13,31,02,23,20,16,32,25,07,04,,,1.17,0.86,0.79*06
$GPGSV,3,1,11,23,75,075,30,13,73,232,35,04,54,266,25,20,41,116,17*7D
$GPGSV,3,2,11,25,38,170,38,02,25,312,25,07,19,180,29,32,18,108,25*70
$GPGSV,3,3,11,44,13,122,,16,10,078,22,31,07,032,17*41
$GPRMC,172033.000,A,5322.7882,N,01428.4464,E,0.20,336.42,260109,,,A*6A
$GPVTG,336.42,T,,M,0.20,N,0.36,K,A*3A
$GPGGA,172034.000,5322.7882,N,01428.4464,E,1,10,0.86,40.4,M,42.0,M,,*58
$GPGSA,A,3,13,31,02,23,20,16,32,25,07,04,,,1.17,0.86,0.79*06
$GPGSV,3,1,11,23,75,075,29,13,73,232,35,04,54,266,24,20,41,116,17*74
$GPGSV,3,2,11,25,38,170,38,02,25,312,26,07,19,180,29,32,18,108,25*73
$GPGSV,3,3,11,44,13,122,,16,10,078,23,31,07,032,17*40
$GPRMC,172034.000,A,5322.7882,N,01428.4464,E,0.29,343.24,260109,,,A*66
$GPVTG,343.24,T,,M,0.29,N,0.55,K,A*34
$GPGGA,172035.000,5322.7883,N,01428.4464,E,1,10,0.91,40.4,M,42.0,M,,*5E
$GPGSA,A,3,13,31,02,23,20,16,32,25,07,04,,,1.56,0.91,1.27*0F
$GPGSV,3,1,11,23,75,075,28,13,73,232,35,04,54,266,23,20,41,116,17*72
$GPGSV,3,2,11,25,38,170,38,02,25,312,26,07,19,180,29,32,18,108,25*73
$GPGSV,3,3,11,44,13,122,,16,10,078,23,31,07,032,17*40
$GPRMC,172035.000,A,5322.7883,N,01428.4464,E,0.20,347.68,260109,,,A*63
$GPVTG,347.68,T,,M,0.20,N,0.36,K,A*34
$GPGGA,172036.000,5322.7884,N,01428.4464,E,1,10,0.91,40.4,M,42.0,M,,*5A
$GPGSA,A,3,13,31,02,23,20,16,32,25,07,04,,,1.56,0.91,1.27*0F
$GPGSV,3,1,11,23,75,075,28,13,73,232,35,04,54,266,22,20,41,116,17*73
$GPGSV,3,2,11,25,38,170,38,02,25,312,26,07,19,180,29,32,18,108,25*73
$GPGSV,3,3,11,44,13,122,,16,10,078,23,31,07,032,17*40
$GPRMC,172036.000,A,5322.7884,N,01428.4464,E,0.12,347.68,260109,,,A*66
$GPVTG,347.68,T,,M,0.12,N,0.23,K,A*31
$GPGGA,172037.000,5322.7884,N,01428.4465,E,1,9,0.91,40.4,M,42.0,M,,*62
$GPGSA,A,3,13,31,02,23,20,16,32,25,07,,,,1.21,0.91,0.79*01
$GPGSV,3,1,11,23,75,075,28,13,73,232,35,04,54,266,20,20,41,116,17*71
$GPGSV,3,2,11,25,38,170,38,02,25,312,26,07,19,180,29,32,18,108,25*73
$GPGSV,3,3,11,44,13,122,,16,10,078,23,31,07,032,17*40
$GPRMC,172037.000,A,5322.7884,N,01428.4465,E,0.12,347.68,260109,,,A*66
$GPVTG,347.68,T,,M,0.12,N,0.22,K,A*30
$GPGGA,172038.000,5322.7884,N,01428.4465,E,1,9,0.91,40.4,M,42.0,M,,*6D
$GPGSA,A,3,13,31,02,23,20,16,32,25,07,,,,1.21,0.91,0.79*01
$GPGSV,3,1,11,23,75,075,28,13,73,232,35,04,54,266,19,20,41,116,17*7B
$GPGSV,3,2,11,25,38,170,38,02,25,312,27,07,19,180,29,32,18,108,25*72
$GPGSV,3,3,11,44,13,122,,16,10,078,23,31,07,032,17*40
$GPRMC,172038.000,A,5322.7884,N,01428.4465,E,0.06,347.68,260109,,,A*6C
$GPVTG,347.68,T,,M,0.06,N,0.12,K,A*36
$GPGGA,172039.000,5322.7884,N,01428.4466,E,1,9,0.91,40.4,M,42.0,M,,*6F
$GPGSA,A,3,13,31,02,23,20,16,32,25,07,,,,1.21,0.91,0.79*01
$GPGSV,3,1,11,23,75,075,28,13,73,232,35,04,54,266,18,20,41,116,17*7A
$GPGSV,3,2,11,25,38,170,38,02,25,312,27,07,19,180,29,32,18,108,25*72
$GPGSV,3,3,11,44,13,122,,16,10,078,23,31,07,032,17*40
$GPRMC,172039.000,A,5322.7884,N,01428.4466,E,0.11,347.68,260109,,,A*68
$GPVTG,347.68,T,,M,0.11,N,0.21,K,A*30
$GPGGA,172040.000,5322.7884,N,01428.4466,E,1,9,0.95,40.4,M,42.0,M,,*65
$GPGSA,A,3,13,31,02,23,20,16,32,25,07,,,,1.60,0.95,1.28*05
$GPGSV,3,1,11,23,75,075,28,13,73,232,35,04,54,266,17,20,41,116,17*75
$GPGSV,3,2,11,25,38,170,38,02,25,312,27,07,19,180,29,32,18,108,25*72
$GPGSV,3,3,11,44,13,122,,16,10,078,23,31,07,032,17*40
$GPRMC,172040.000,A,5322.7884,N,01428.4466,E,0.15,347.68,260109,,,A*62
$GPVTG,347.68,T,,M,0.15,N,0.28,K,A*3D
$GPGGA,172041.000,5322.7885,N,01428.4466,E,1,9,0.95,40.4,M,42.0,M,,*65
$GPGSA,A,3,13,31,02,23,20,16,32,25,07,,,,1.60,0.95,1.28*05
$GPGSV,3,1,11,23,75,075,28,13,73,232,34,04,54,266,16,20,41,116,18*7A
$GPGSV,3,2,11,25,38,170,38,02,25,312,27,07,19,180,29,32,18,108,25*72
$GPGSV,3,3,11,44,13,122,,16,10,078,23,31,07,032,17*40
$GPRMC,172041.000,A,5322.7885,N,01428.4466,E,0.05,347.68,260109,,,A*63
$GPVTG,347.68,T,,M,0.05,N,0.08,K,A*3E
$GPGGA,172042.000,5322.7885,N,01428.4466,E,1,9,0.91,40.3,M,42.0,M,,*65
$GPGSA,A,3,13,31,02,23,20,16,32,25,07,,,,1.21,0.91,0.79*01
$GPGSV,3,1,11,23,75,075,27,13,73,232,34,04,54,266,15,20,41,116,19*77
$GPGSV,3,2,11,25,38,170,38,02,25,312,27,07,19,180,29,32,18,108,24*73
$GPGSV,3,3,11,44,13,122,,16,10,078,23,31,07,032,17*40
$GPRMC,172042.000,A,5322.7885,N,01428.4466,E,0.11,347.68,260109,,,A*65
$GPVTG,347.68,T,,M,0.11,N,0.20,K,A*31
$GPGGA,172043.000,5322.7885,N,01428.4466,E,1,9,0.91,40.3,M,42.0,M,,*64
$GPGSA,A,3,13,31,02,23,20,16,32,25,07,,,,1.21,0.91,0.79*01
$GPGSV,3,1,11,23,75,075,27,13,73,232,34,04,54,266,15,20,41,116,19*77
$GPGSV,3,2,11,25,38,170,38,02,25,312,27,07,19,180,29,32,18,108,24*73
$GPGSV,3,3,11,44,13,122,,16,10,078,23,31,07,032,18*4F
$GPRMC,172043.000,A,5322.7885,N,01428.4466,E,0.29,33.69,260109,,,A*5E
$GPVTG,33.69,T,,M,0.29,N,0.54,K,A*08
$GPGGA,172044.000,5322.7886,N,01428.4467,E,1,9,0.91,40.3,M,42.0,M,,*61
$GPGSA,A,3,13,31,02,23,20,16,32,25,07,,,,1.21,0.91,0.79*01
$GPGSV,3,1,11,23,75,075,27,13,73,232,34,04,54,266,15,20,41,116,20*7D
$GPGSV,3,2,11,25,38,170,38,02,25,312,27,07,19,180,29,32,18,108,24*73
$GPGSV,3,3,11,44,13,122,,16,10,078,23,31,07,032,18*4F
$GPRMC,172044.000,A,5322.7886,N,01428.4467,E,0.21,28.49,260109,,,A*5B
$GPVTG,28.49,T,,M,0.21,N,0.39,K,A*03
$GPGGA,172045.000,5322.7887,N,01428.4468,E,1,9,0.91,40.3,M,42.0,M,,*6E
$GPGSA,A,3,13,31,02,23,20,16,32,25,07,,,,1.21,0.91,0.79*01
$GPGSV,3,1,11,23,75,075,27,13,73,232,33,04,54,266,15,20,41,116,21*7B
$GPGSV,3,2,11,25,38,170,38,02,25,312,27,07,19,180,29,32,18,108,24*73
$GPGSV,3,3,11,44,13,122,,16,10,078,23,31,07,032,18*4F
$GPRMC,172045.000,A,5322.7887,N,01428.4468,E,0.05,28.49,260109,,,A*52
$GPVTG,28.49,T,,M,0.05,N,0.09,K,A*06
$GPGGA,172046.000,5322.7887,N,01428.4468,E,1,9,0.91,40.3,M,42.0,M,,*6D
$GPGSA,A,3,13,31,02,23,20,16,32,25,07,,,,1.21,0.91,0.79*01
$GPGSV,3,1,11,23,75,075,27,13,73,232,33,04,54,266,15,20,41,116,21*7B
$GPGSV,3,2,11,25,38,170,38,02,25,312,27,33,23,215,,07,19,180,29*73
$GPGSV,3,3,11,32,18,108,24,16,10,078,23,31,07,032,18*4B
$GPRMC,172046.000,A,5322.7887,N,01428.4468,E,0.12,28.49,260109,,,A*57
$GPVTG,28.49,T,,M,0.12,N,0.23,K,A*08
$GPGGA,172047.000,5322.7887,N,01428.4468,E,1,9,0.91,40.3,M,42.0,M,,*6C
$GPGSA,A,3,13,31,02,23,20,16,32,25,07,,,,1.21,0.91,0.79*01
$GPGSV,3,1,11,23,75,075,27,13,73,232,33,04,54,266,15,20,41,116,22*78
$GPGSV,3,2,11,25,38,170,38,02,25,312,27,33,23,215,,07,19,180,29*73
$GPGSV,3,3,11,32,18,108,24,16,10,078,23,31,07,032,19*4A
$GPRMC,172047.000,A,5322.7887,N,01428.4468,E,0.19,28.49,260109,,,A*5D
$GPVTG,28.49,T,,M,0.19,N,0.35,K,A*04
$GPGGA,172048.000,5322.7887,N,01428.4469,E,1,9,0.91,40.3,M,42.0,M,,*62
$GPGSA,A,3,13,31,02,23,20,16,32,25,07,,,,1.21,0.91,0.79*01
$GPGSV,3,1,11,23,75,075,27,13,73,232,32,04,54,266,15,20,41,116,22*79
$GPGSV,3,2,11,25,38,170,38,02,25,312,28,33,23,215,,07,19,180,29*7C
$GPGSV,3,3,11,32,18,108,24,16,11,078,22,31,07,032,19*4A
$GPRMC,172048.000,A,5322.7887,N,01428.4469,E,0.21,88.01,260109,,,A*5E
$GPVTG,88.01,T,,M,0.21,N,0.39,K,A*05
$GPGGA,172049.000,5322.7886,N,01428.4470,E,1,9,0.91,40.3,M,42.0,M,,*6A
$GPGSA,A,3,13,31,02,23,20,16,32,25,07,,,,1.21,0.91,0.79*01
$GPGSV,3,1,11,23,75,075,28,13,73,232,32,04,54,266,15,20,41,116,22*76
$GPGSV,3,2,11,25,38,170,38,02,25,312,28,33,23,215,,07,19,180,30*74
$GPGSV,3,3,11,32,18,108,24,16,11,078,21,31,07,032,19*49
$GPRMC,172049.000,A,5322.7886,N,01428.4470,E,0.15,88.01,260109,,,A*51
$GPVTG,88.01,T,,M,0.15,N,0.28,K,A*02
$GPGGA,172050.000,5322.7886,N,01428.4471,E,1,9,0.91,40.3,M,42.0,M,,*63
$GPGSA,A,3,13,31,02,23,20,16,32,25,07,,,,1.21,0.91,0.79*01
$GPGSV,3,1,11,23,75,075,28,13,73,232,32,04,54,266,15,20,41,116,22*76
$GPGSV,3,2,11,25,38,170,38,02,25,312,28,33,23,215,,07,19,180,30*74
$GPGSV,3,3,11,32,18,108,24,16,11,078,20,31,07,032,20*42
$GPRMC,172050.000,A,5322.7886,N,01428.4471,E,0.28,115.60,260109,,,A*64
$GPVTG,115.60,T,,M,0.28,N,0.51,K,A*30
$GPGGA,172051.000,5322.7886,N,01428.4472,E,1,9,0.91,40.3,M,42.0,M,,*61
$GPGSA,A,3,13,31,02,23,20,16,32,25,07,,,,1.21,0.91,0.79*01
$GPGSV,3,1,11,23,75,075,29,13,73,232,32,04,54,266,15,20,41,116,22*77
$GPGSV,3,2,11,25,38,170,38,02,25,312,28,33,23,215,,07,19,180,30*74
$GPGSV,3,3,11,32,18,108,24,16,11,078,19,31,07,032,20*48
$GPRMC,172051.000,A,5322.7886,N,01428.4472,E,0.28,116.46,260109,,,A*61
$GPVTG,116.46,T,,M,0.28,N,0.53,K,A*35
$GPGGA,172052.000,5322.7885,N,01428.4473,E,1,9,0.91,40.3,M,42.0,M,,*60
$GPGSA,A,3,13,31,02,23,20,16,32,25,07,,,,1.21,0.91,0.79*01
$GPGSV,3,1,11,23,75,075,29,13,73,232,32,04,54,266,15,20,41,116,21*74
$GPGSV,3,2,11,25,38,170,38,02,25,312,28,33,23,215,,07,19,180,30*74
$GPGSV,3,3,11,32,18,108,24,16,11,078,18,31,07,032,20*49
$GPRMC,172052.000,A,5322.7885,N,01428.4473,E,0.34,104.15,260109,,,A*68
$GPVTG,104.15,T,,M,0.34,N,0.64,K,A*39
$GPGGA,172053.000,5322.7886,N,01428.4474,E,1,9,0.91,40.3,M,42.0,M,,*65
$GPGSA,A,3,13,31,02,23,20,16,32,25,07,,,,1.21,0.91,0.79*01
$GPGSV,3,1,11,23,75,075,29,13,73,232,32,04,54,266,15,20,41,116,21*74
$GPGSV,3,2,11,25,38,170,38,02,25,312,28,33,23,215,,07,19,180,30*74
$GPGSV,3,3,11,32,18,108,24,16,11,078,18,31,07,032,20*49
$GPRMC,172053.000,A,5322.7886,N,01428.4474,E,0.24,96.19,260109,,,A*5A
$GPVTG,96.19,T,,M,0.24,N,0.44,K,A*0C
$GPGGA,172054.000,5322.7886,N,01428.4475,E,1,9,0.91,40.3,M,42.0,M,,*63
$GPGSA,A,3,13,31,02,23,20,16,32,25,07,,,,1.21,0.91,0.79*01
$GPGSV,3,1,11,23,75,075,29,13,73,232,32,04,54,266,15,20,41,116,20*75
$GPGSV,3,2,11,25,38,170,38,02,25,312,28,33,23,215,,07,19,180,30*74
$GPGSV,3,3,11,32,18,108,24,16,11,078,18,31,07,032,20*49
$GPRMC,172054.000,A,5322.7886,N,01428.4475,E,0.25,98.96,260109,,,A*54
$GPVTG,98.96,T,,M,0.25,N,0.46,K,A*06
$GPGGA,172055.000,5322.7886,N,01428.4476,E,1,9,0.91,40.3,M,42.0,M,,*61
$GPGSA,A,3,13,31,02,23,20,16,32,25,07,,,,1.21,0.91,0.79*01
$GPGSV,3,1,11,23,75,074,29,13,73,232,32,04,54,266,16,20,41,116,20*77
$GPGSV,3,2,11,25,38,170,38,02,25,312,28,33,23,215,,07,19,180,30*74
$GPGSV,3,3,11,32,18,108,24,16,11,078,18,31,07,032,19*43
$GPRMC,172055.000,A,5322.7886,N,01428.4476,E,0.16,98.96,260109,,,A*56
$GPVTG,98.96,T,,M,0.16,N,0.30,K,A*07
$GPGGA,172056.000,5322.7886,N,01428.4477,E,1,9,0.91,40.3,M,42.0,M,,*63
$GPGSA,A,3,13,31,02,23,20,16,32,25,07,,,,1.21,0.91,0.79*01
$GPGSV,3,1,11,23,75,074,29,13,73,232,32,04,54,266,16,20,41,116,20*77
$GPGSV,3,2,11,25,38,170,38,02,25,312,27,33,23,215,,07,19,180,30*7B
$GPGSV,3,3,11,32,18,108,24,16,11,078,19,31,07,032,19*42
$GPRMC,172056.000,A,5322.7886,N,01428.4477,E,0.15,98.96,260109,,,A*57
$GPVTG,98.96,T,,M,0.15,N,0.27,K,A*02
$GPGGA,172057.000,5322.7885,N,01428.4477,E,1,9,0.91,40.3,M,42.0,M,,*61
$GPGSA,A,3,13,31,02,23,20,16,32,25,07,,,,1.21,0.91,0.79*01
$GPGSV,3,1,11,23,75,074,29,13,73,232,32,04,54,266,17,20,41,116,20*76
$GPGSV,3,2,11,25,39,170,38,02,25,312,27,33,23,215,,07,19,180,30*7A
$GPGSV,3,3,11,32,18,108,24,16,11,078,20,31,07,032,19*48
$GPRMC,172057.000,A,5322.7885,N,01428.4477,E,0.22,96.04,260109,,,A*54
$GPVTG,96.04,T,,M,0.22,N,0.41,K,A*03
$GPGGA,172058.000,5322.7886,N,01428.4478,E,1,10,0.86,40.2,M,42.0,M,,*5D
$GPGSA,A,3,13,31,02,23,20,16,32,25,07,04,,,1.17,0.86,0.79*06
$GPGSV,3,1,11,23,75,074,29,13,73,232,32,04,54,266,18,20,41,116,20*79
$GPGSV,3,2,11,25,39,170,38,02,25,312,27,37,21,172,,07,19,180,30*7E
$GPGSV,3,3,11,32,18,108,25,16,11,078,20,31,07,032,19*49
$GPRMC,172058.000,A,5322.7886,N,01428.4478,E,0.18,96.04,260109,,,A*5E
$GPVTG,96.04,T,,M,0.18,N,0.33,K,A*0F
$GPGGA,172059.000,5322.7886,N,01428.4479,E,1,10,0.86,40.2,M,42.0,M,,*5D
$GPGSA,A,3,13,31,02,23,20,16,32,25,07,04,,,1.17,0.86,0.79*06
$GPGSV,3,1,11,23,75,074,29,13,73,232,32,04,54,266,19,20,41,116,20*78
$GPGSV,3,2,11,25,39,170,38,02,25,312,27,37,21,172,,07,19,180,31*7F
$GPGSV,3,3,11,32,18,108,25,16,11,078,21,31,07,032,19*48
$GPRMC,172059.000,A,5322.7886,N,01428.4479,E,0.18,96.04,260109,,,A*5E
$GPVTG,96.04,T,,M,0.18,N,0.33,K,A*0F
$GPGGA,172100.000,5322.7886,N,01428.4479,E,1,10,0.86,40.2,M,42.0,M,,*50
$GPGSA,A,3,13,31,02,23,20,16,32,25,07,04,,,1.17,0.86,0.79*06
$GPGSV,3,1,11,23,75,074,29,13,73,232,32,04,54,266,20,20,41,116,20*72
$GPGSV,3,2,11,25,39,170,38,02,25,312,27,37,21,172,,07,19,180,31*7F
$GPGSV,3,3,11,32,18,108,25,16,11,078,21,31,07,032,18*49
$GPRMC,172100.000,A,5322.7886,N,01428.4479,E,0.27,75.42,260109,,,A*50
$GPVTG,75.42,T,,M,0.27,N,0.50,K,A*09
$GPGGA,172101.000,5322.7887,N,01428.4480,E,1,10,0.86,40.2,M,42.0,M,,*56
$GPGSA,A,3,13,31,02,23,20,16,32,25,07,04,,,1.17,0.86,0.79*06
$GPGSV,3,1,11,23,75,074,29,13,73,232,31,04,54,266,21,20,41,116,20*70
$GPGSV,3,2,11,25,39,170,38,02,25,312,27,37,21,172,,07,19,180,31*7F
$GPGSV,3,3,11,32,18,108,25,16,11,078,21,31,07,032,18*49
$GPRMC,172101.000,A,5322.7887,N,01428.4480,E,0.29,65.27,260109,,,A*5A
$GPVTG,65.27,T,,M,0.29,N,0.54,K,A*01
$GPGGA,172102.000,5322.7888,N,01428.4481,E,1,10,0.86,40.2,M,42.0,M,,*5B
$GPGSA,A,3,13,31,02,23,20,16,32,25,07,04,,,1.17,0.86,0.79*06
$GPGSV,3,1,11,23,75,074,29,13,73,232,31,04,54,266,22,20,41,116,20*73
$GPGSV,3,2,11,25,39,170,38,02,25,312,27,37,21,172,,07,19,180,31*7F
$GPGSV,3,3,11,32,18,108,25,16,11,078,21,31,07,032,18*49
$GPRMC,172102.000,A,5322.7888,N,01428.4481,E,0.23,57.05,260109,,,A*5C
$GPVTG,57.05,T,,M,0.23,N,0.42,K,A*0D
$GPGGA,172103.000,5322.7888,N,01428.4482,E,1,10,0.86,40.2,M,42.0,M,,*59
$GPGSA,A,3,13,31,02,23,20,16,32,25,07,04,,,1.17,0.86,0.79*06
$GPGSV,3,1,11,23,75,074,29,13,73,232,31,04,54,266,23,20,41,116,20*72
$GPGSV,3,2,11,25,39,170,38,02,25,312,27,37,21,172,,07,19,180,31*7F
$GPGSV,3,3,11,32,18,108,25,16,11,078,22,31,06,032,18*4B
$GPRMC,172103.000,A,5322.7888,N,01428.4482,E,0.30,37.48,260109,,,A*53
$GPVTG,37.48,T,,M,0.30,N,0.56,K,A*05
$GPGGA,172104.000,5322.7889,N,01428.4482,E,1,10,0.91,40.2,M,42.0,M,,*59
$GPGSA,A,3,13,31,02,23,20,16,32,25,07,04,,,1.57,0.91,1.27*0E
$GPGSV,3,1,11,23,75,074,28,13,73,232,31,04,54,266,23,20,41,116,21*72
$GPGSV,3,2,11,25,39,170,38,02,25,312,26,37,21,172,,07,19,180,31*7E
$GPGSV,3,3,11,32,18,108,25,16,11,078,22,31,06,032,18*4B
$GPRMC,172104.000,A,5322.7889,N,01428.4482,E,0.30,23.79,260109,,,A*52
$GPVTG,23.79,T,,M,0.30,N,0.55,K,A*01
$GPGGA,172105.000,5322.7890,N,01428.4482,E,1,10,0.91,40.2,M,42.0,M,,*50
$GPGSA,A,3,13,31,02,23,20,16,32,25,07,04,,,1.57,0.91,1.27*0E
$GPGSV,3,1,11,23,75,074,27,13,73,232,31,04,54,266,24,20,41,116,21*7A
$GPGSV,3,2,11,25,39,170,38,02,25,312,25,37,21,172,,07,19,180,31*7D
$GPGSV,3,3,11,32,18,108,25,16,11,078,23,31,06,032,18*4A
$GPRMC,172105.000,A,5322.7890,N,01428.4482,E,0.22,8.90,260109,,,A*66
$GPVTG,8.90,T,,M,0.22,N,0.40,K,A*38
$GPGGA,172106.000,5322.7891,N,01428.4481,E,1,10,0.86,40.2,M,42.0,M,,*57
$GPGSA,A,3,13,31,02,23,20,16,32,25,07,04,,,1.17,0.86,0.79*06
$GPGSV,3,1,11,23,75,074,27,13,73,232,31,04,54,266,25,20,41,116,21*7B
$GPGSV,3,2,11,25,39,170,38,02,25,312,25,37,21,172,,07,19,180,31*7D
$GPGSV,3,3,11,32,18,108,25,16,11,078,24,31,06,032,18*4D
$GPRMC,172106.000,A,5322.7891,N,01428.4481,E,0.32,351.39,260109,,,A*6A
$GPVTG,351.39,T,,M,0.32,N,0.60,K,A*37
$GPGGA,172107.000,5322.7892,N,01428.4480,E,1,10,0.86,40.1,M,42.0,M,,*57
$GPGSA,A,3,13,31,02,23,20,16,32,25,07,04,,,1.17,0.86,0.79*06
$GPGSV,3,1,11,23,75,074,27,13,73,232,31,04,54,266,25,20,41,116,21*7B
$GPGSV,3,2,11,25,39,170,37,02,25,312,25,37,21,172,,07,19,180,31*72
$GPGSV,3,3,11,32,18,108,25,16,11,078,24,31,06,032,18*4D
$GPRMC,172107.000,A,5322.7892,N,01428.4480,E,0.18,351.39,260109,,,A*61
$GPVTG,351.39,T,,M,0.18,N,0.33,K,A*39
$GPGGA,172108.000,5322.7892,N,01428.4480,E,1,10,0.86,40.1,M,42.0,M,,*58
$GPGSA,A,3,13,31,02,23,20,16,32,25,07,04,,,1.17,0.86,0.79*06
$GPGSV,3,1,11,23,75,074,27,13,73,232,31,04,54,265,26,20,41,116,21*7B
$GPGSV,3,2,11,25,39,170,37,02,25,312,25,37,21,172,,07,19,180,31*72
$GPGSV,3,3,11,32,18,108,25,16,11,078,24,31,06,032,18*4D
$GPRMC,172108.000,A,5322.7892,N,01428.4480,E,0.16,351.39,260109,,,A*60
$GPVTG,351.39,T,,M,0.16,N,0.30,K,A*34
$GPGGA,172109.000,5322.7893,N,01428.4479,E,1,10,0.86,40.1,M,42.0,M,,*5E
$GPGSA,A,3,13,31,02,23,20,16,32,25,07,04,,,1.17,0.86,0.79*06
$GPGSV,3,1,11,23,75,074,27,13,73,232,31,04,54,265,26,20,41,116,21*7B
$GPGSV,3,2,11,25,39,170,37,02,25,312,25,37,21,172,,07,19,180,31*72
$GPGSV,3,3,11,32,18,108,25,16,11,078,25,31,06,032,18*4C
$GPRMC,172109.000,A,5322.7893,N,01428.4479,E,0.28,328.14,260109,,,A*6A
$GPVTG,328.14,T,,M,0.28,N,0.52,K,A*3C
$GPGGA,172110.000,5322.7893,N,01428.4478,E,1,10,0.86,40.1,M,42.0,M,,*57
$GPGSA,A,3,13,31,02,23,20,16,32,25,07,04,,,1.17,0.86,0.79*06
$GPGSV,3,1,11,23,75,074,27,13,73,232,31,04,54,265,26,20,41,116,20*7A
$GPGSV,3,2,11,25,39,170,37,02,25,312,24,07,19,180,31,32,18,108,25*76
$GPGSV,3,3,11,44,13,122,,16,11,078,25,31,06,032,18*49
$GPRMC,172110.000,A,5322.7893,N,01428.4478,E,0.26,315.90,260109,,,A*6F
$GPVTG,315.90,T,,M,0.26,N,0.48,K,A*3B
$GPGGA,172111.000,5322.7893,N,01428.4477,E,1,10,0.86,40.1,M,42.0,M,,*59
$GPGSA,A,3,13,31,02,23,20,16,32,25,07,04,,,1.17,0.86,0.79*06
$GPGSV,3,1,11,23,75,074,27,13,73,232,31,04,54,265,26,20,41,116,19*70
$GPGSV,3,2,11,25,39,170,37,02,25,312,24,07,19,180,31,32,18,108,25*76
$GPGSV,3,3,11,44,13,122,,16,11,078,25,31,06,032,18*49
$GPRMC,172111.000,A,5322.7893,N,01428.4477,E,0.25,312.57,260109,,,A*6E
$GPVTG,312.57,T,,M,0.25,N,0.45,K,A*39
$GPGGA,172112.000,5322.7894,N,01428.4476,E,1,10,0.86,40.0,M,42.0,M,,*5D
$GPGSA,A,3,13,31,02,23,20,16,32,25,07,04,,,1.17,0.86,0.79*06
$GPGSV,3,1,11,23,75,074,28,13,73,232,32,04,54,265,26,20,41,116,19*7C
$GPGSV,3,2,11,25,39,170,37,02,25,312,24,07,19,180,31,32,18,108,25*76
$GPGSV,3,3,11,44,13,122,,16,11,078,25,31,06,032,18*49
$GPRMC,172112.000,A,5322.7894,N,01428.4476,E,0.25,307.96,260109,,,A*62
$GPVTG,307.96,T,,M,0.25,N,0.47,K,A*32
$GPGGA,172113.000,5322.7894,N,01428.4475,E,1,10,0.86,40.0,M,42.0,M,,*5F
$GPGSA,A,3,13,31,02,23,20,16,32,25,07,04,,,1.17,0.86,0.79*06
$GPGSV,3,1,11,23,75,074,29,13,73,232,32,04,54,265,26,20,41,116,19*7D
$GPGSV,3,2,11,25,39,170,37,02,25,312,24,07,19,180,31,32,18,108,25*76
$GPGSV,3,3,11,44,13,122,,16,11,078,25,31,06,032,18*49
$GPRMC,172113.000,A,5322.7894,N,01428.4475,E,0.23,305.25,260109,,,A*6C
$GPVTG,305.25,T,,M,0.23,N,0.44,K,A*3D
$GPGGA,172114.000,5322.7895,N,01428.4474,E,1,10,0.86,40.0,M,42.0,M,,*58
$GPGSA,A,3,13,31,02,23,20,16,32,25,07,04,,,1.17,0.86,0.79*06
$GPGSV,3,1,11,23,75,074,29,13,73,232,32,04,54,265,26,20,41,116,19*7D
$GPGSV,3,2,11,25,39,170,37,02,25,312,24,07,19,180,31,32,18,108,25*76
$GPGSV,3,3,11,44,13,122,,16,11,078,26,31,06,032,18*4A
$GPRMC,172114.000,A,5322.7895,N,01428.4474,E,0.26,317.82,260109,,,A*60
$GPVTG,317.82,T,,M,0.26,N,0.48,K,A*3A
$GPGGA,172115.000,5322.7896,N,01428.4474,E,1,10,0.91,40.0,M,42.0,M,,*5C
$GPGSA,A,3,13,31,02,23,20,16,32,25,07,04,,,1.57,0.91,1.27*0E
$GPGSV,3,1,11,23,75,074,29,13,73,232,32,04,54,265,26,20,41,116,20*77
$GPGSV,3,2,11,25,39,170,37,02,25,312,24,07,19,180,31,32,18,108,25*76
$GPGSV,3,3,11,44,13,122,,16,11,078,26,31,06,032,18*4A
$GPRMC,172115.000,A,5322.7896,N,01428.4474,E,0.25,334.44,260109,,,A*6A
$GPVTG,334.44,T,,M,0.25,N,0.46,K,A*3C
$GPGGA,172116.000,5322.7896,N,01428.4475,E,1,10,0.86,40.0,M,42.0,M,,*58
$GPGSA,A,3,13,31,02,23,20,16,32,25,07,04,,,1.17,0.86,0.79*06
$GPGSV,3,1,11,23,75,074,29,13,73,232,32,04,54,265,26,20,41,116,20*77
$GPGSV,3,2,11,25,39,170,37,02,25,312,24,07,19,180,31,32,18,108,25*76
$GPGSV,3,3,11,44,13,122,,16,11,078,26,31,06,032,18*4A
$GPRMC,172116.000,A,5322.7896,N,01428.4475,E,0.25,345.78,260109,,,A*61
$GPVTG,345.78,T,,M,0.25,N,0.46,K,A*35
$GPGGA,172117.000,5322.7897,N,01428.4475,E,1,10,0.91,39.9,M,42.0,M,,*59
$GPGSA,A,3,13,31,02,23,20,16,32,25,07,04,,,1.57,0.91,1.27*0E
$GPGSV,3,1,11,23,75,074,30,13,73,233,33,04,54,265,26,20,41,116,20*7F
$GPGSV,3,2,11,25,39,170,36,02,25,312,24,07,19,180,31,32,18,108,25*77
$GPGSV,3,3,11,44,13,122,28,16,11,078,26,31,06,032,18*40
$GPRMC,172117.000,A,5322.7897,N,01428.4475,E,0.27,342.82,260109,,,A*61
$GPVTG,342.82,T,,M,0.27,N,0.51,K,A*33
$GPGGA,172118.000,5322.7898,N,01428.4475,E,1,10,0.86,39.9,M,42.0,M,,*5F
$GPGSA,A,3,13,31,02,23,20,16,32,25,07,04,,,1.17,0.86,0.79*06
$GPGSV,3,1,11,23,75,074,30,13,73,233,33,04,54,265,26,20,41,116,20*7F
$GPGSV,3,2,11,25,39,170,36,02,25,312,24,07,19,180,31,32,18,108,24*76
$GPGSV,3,3,11,44,13,122,,16,11,078,26,31,06,032,18*4A
$GPRMC,172118.000,A,5322.7898,N,01428.4475,E,0.26,333.40,260109,,,A*68
$GPVTG,333.40,T,,M,0.26,N,0.47,K,A*3D
$GPGGA,172119.000,5322.7898,N,01428.4474,E,1,10,0.86,39.9,M,42.0,M,,*5F
$GPGSA,A,3,13,31,02,23,20,16,32,25,07,04,,,1.17,0.86,0.79*06
$GPGSV,3,1,11,23,75,074,30,13,73,233,33,04,54,265,26,20,41,116,20*7F
$GPGSV,3,2,11,25,39,170,36,02,25,312,24,07,19,180,31,32,18,108,24*76
$GPGSV,3,3,11,44,13,122,,16,11,078,26,31,06,032,18*4A
$GPRMC,172119.000,A,5322.7898,N,01428.4474,E,0.16,333.40,260109,,,A*6B
$GPVTG,333.40,T,,M,0.16,N,0.30,K,A*3E
$GPGGA,172120.000,5322.7899,N,01428.4474,E,1,10,0.86,39.9,M,42.0,M,,*54
$GPGSA,A,3,13,31,02,23,20,16,32,25,07,04,,,1.17,0.86,0.79*06
$GPGSV,3,1,11,23,75,074,31,13,73,233,33,04,54,265,26,20,41,116,20*7E
$GPGSV,3,2,11,25,39,170,36,02,25,312,24,07,19,180,31,32,18,108,24*76
$GPGSV,3,3,11,44,13,122,,16,11,078,26,31,06,032,18*4A
$GPRMC,172120.000,A,5322.7899,N,01428.4474,E,0.16,333.40,260109,,,A*60
$GPVTG,333.40,T,,M,0.16,N,0.30,K,A*3E
$GPGGA,172121.000,5322.7899,N,01428.4473,E,1,10,0.86,39.8,M,42.0,M,,*53
$GPGSA,A,3,13,31,02,23,20,16,32,25,07,04,,,1.17,0.86,0.79*06
$GPGSV,3,1,11,23,75,074,31,13,73,233,33,04,54,265,26,20,41,116,21*7F
$GPGSV,3,2,11,25,39,170,36,02,25,312,24,07,19,180,31,32,18,108,23*71
$GPGSV,3,3,11,44,13,122,,16,11,078,25,31,06,032,18*49
$GPRMC,172121.000,A,5322.7899,N,01428.4473,E,0.25,313.76,260109,,,A*61
$GPVTG,313.76,T,,M,0.25,N,0.47,K,A*39
$GPGGA,172122.000,5322.7899,N,01428.4472,E,1,10,0.86,39.8,M,42.0,M,,*51
$GPGSA,A,3,13,31,02,23,20,16,32,25,07,04,,,1.17,0.86,0.79*06
$GPGSV,3,1,11,23,75,074,32,13,73,233,33,04,54,265,26,20,41,116,21*7C
$GPGSV,3,2,11,25,39,170,36,02,25,312,24,07,19,180,31,32,18,108,23*71
$GPGSV,3,3,11,16,11,078,25,31,06,032,18,34,,,*7D
$GPRMC,172122.000,A,5322.7899,N,01428.4472,E,0.21,304.21,260109,,,A*63
$GPVTG,304.21,T,,M,0.21,N,0.39,K,A*30
$GPGGA,172123.000,5322.7899,N,01428.4471,E,1,10,0.86,39.8,M,42.0,M,,*53
$GPGSA,A,3,13,31,02,23,20,16,32,25,07,04,,,1.17,0.86,0.79*06
$GPGSV,3,1,11,23,75,074,32,13,73,233,33,04,54,265,26,20,41,116,21*7C
$GPGSV,3,2,11,25,39,170,36,02,25,312,24,07,19,180,31,32,18,108,24*76
$GPGSV,3,3,11,16,11,078,25,31,06,032,18,34,,,*7D
$GPRMC,172123.000,A,5322.7899,N,01428.4471,E,0.16,304.21,260109,,,A*65
$GPVTG,304.21,T,,M,0.16,N,0.30,K,A*3D
$GPGGA,172124.000,5322.7899,N,01428.4471,E,1,10,0.86,39.7,M,42.0,M,,*5B
$GPGSA,A,3,13,31,02,23,20,16,32,25,07,04,,,1.17,0.86,0.79*06
$GPGSV,3,1,11,23,75,074,32,13,73,233,33,04,54,265,26,20,40,116,20*7C
$GPGSV,3,2,11,25,39,170,36,02,25,312,24,07,19,180,31,32,18,108,24*76
$GPGSV,3,3,11,16,11,078,25,31,06,032,18,34,,,*7D
$GPRMC,172124.000,A,5322.7899,N,01428.4471,E,0.02,304.21,260109,,,A*67
$GPVTG,304.21,T,,M,0.02,N,0.04,K,A*3F
$GPGGA,172125.000,5322.7900,N,01428.4471,E,1,10,0.86,39.7,M,42.0,M,,*5B
$GPGSA,A,3,13,31,02,23,20,16,32,25,07,04,,,1.17,0.86,0.79*06
$GPGSV,3,1,11,23,75,074,32,13,73,233,33,04,54,265,26,20,40,116,20*7C
$GPGSV,3,2,11,25,39,170,36,02,25,312,24,07,19,180,31,32,18,108,23*71
$GPGSV,3,3,11,16,11,078,25,31,06,032,18,34,,,*7D
$GPRMC,172125.000,A,5322.7900,N,01428.4471,E,0.23,322.11,260109,,,A*63
$GPVTG,322.11,T,,M,0.23,N,0.43,K,A*38
$GPGGA,172126.000,5322.7899,N,01428.4472,E,1,10,0.86,39.7,M,42.0,M,,*5A
$GPGSA,A,3,13,31,02,23,20,16,32,25,07,04,,,1.17,0.86,0.79*06
$GPGSV,3,1,11,23,75,074,32,13,73,233,33,04,54,265,25,20,40,116,19*75
$GPGSV,3,2,11,25,39,170,36,02,25,312,24,07,19,180,31,32,18,108,23*71
$GPGSV,3,3,11,16,11,078,24,31,06,032,18,34,,,*7C
$GPRMC,172126.000,A,5322.7899,N,01428.4472,E,0.21,46.48,260109,,,A*5D
$GPVTG,46.48,T,,M,0.21,N,0.40,K,A*04
$GPGGA,172127.000,5322.7899,N,01428.4473,E,1,10,0.86,39.7,M,42.0,M,,*5A
$GPGSA,A,3,13,31,02,23,20,16,32,25,07,04,,,1.17,0.86,0.79*06
$GPGSV,3,1,11,23,74,074,32,13,73,233,33,04,54,265,25,20,40,116,19*74
$GPGSV,3,2,11,25,39,170,36,02,25,312,24,07,19,180,31,32,18,108,23*71
$GPGSV,3,3,11,16,11,078,23,31,06,032,18,34,,,*7B
$GPRMC,172127.000,A,5322.7899,N,01428.4473,E,0.26,83.17,260109,,,A*59
$GPVTG,83.17,T,,M,0.26,N,0.48,K,A*08
$GPGGA,172128.000,5322.7899,N,01428.4474,E,1,10,0.86,39.6,M,42.0,M,,*53
$GPGSA,A,3,13,31,02,23,20,16,32,25,07,04,,,1.17,0.86,0.79*06
$GPGSV,3,1,11,23,74,074,32,13,73,233,33,04,54,265,25,20,40,116,18*75
$GPGSV,3,2,11,25,39,170,36,02,25,312,24,07,19,180,31,32,18,108,23*71
$GPGSV,3,3,11,16,11,078,23,31,06,032,18,34,,,*7B
$GPRMC,172128.000,A,5322.7899,N,01428.4474,E,0.17,83.17,260109,,,A*53
$GPVTG,83.17,T,,M,0.17,N,0.31,K,A*04
$GPGGA,172129.000,5322.7899,N,01428.4475,E,1,10,0.86,39.6,M,42.0,M,,*53
$GPGSA,A,3,13,31,02,23,20,16,32,25,07,04,,,1.17,0.86,0.79*06
$GPGSV,3,1,11,23,74,074,32,13,73,233,33,04,54,265,25,20,40,116,18*75
$GPGSV,3,2,11,25,39,170,35,02,25,312,24,07,19,180,31,32,18,108,23*72
$GPGSV,3,3,11,16,11,078,23,31,06,032,18,34,,,*7B
$GPRMC,172129.000,A,5322.7899,N,01428.4475,E,0.13,83.17,260109,,,A*57
$GPVTG,83.17,T,,M,0.13,N,0.23,K,A*03
$GPGGA,172130.000,5322.7900,N,01428.4476,E,1,10,0.86,39.6,M,42.0,M,,*59
$GPGSA,A,3,13,31,02,23,20,16,32,25,07,04,,,1.17,0.86,0.79*06
$GPGSV,3,1,11,23,74,074,32,13,73,233,33,04,54,265,25,20,40,116,18*75
$GPGSV,3,2,11,25,39,170,35,02,25,312,24,07,19,180,31,32,18,108,22*73
$GPGSV,3,3,11,16,11,078,24,31,06,032,18,34,,,*7C
$GPRMC,172130.000,A,5322.7900,N,01428.4476,E,0.25,87.55,260109,,,A*5A
$GPVTG,87.55,T,,M,0.25,N,0.47,K,A*06
$GPGGA,172131.000,5322.7899,N,01428.4477,E,1,10,0.87,39.6,M,42.0,M,,*59
$GPGSA,A,3,13,31,02,23,20,16,32,25,07,04,,,1.17,0.87,0.79*07
$GPGSV,3,1,11,23,74,074,32,13,73,233,33,04,54,265,25,20,40,116,18*75
$GPGSV,3,2,11,25,39,170,35,02,25,312,24,07,19,180,31,32,18,108,22*73
$GPGSV,3,3,11,16,11,078,24,31,06,032,18,36,,,*7E
$GPRMC,172131.000,A,5322.7899,N,01428.4477,E,0.31,91.08,260109,,,A*51
$GPVTG,91.08,T,,M,0.31,N,0.58,K,A*02
$GPGGA,172132.000,5322.7899,N,01428.4479,E,1,10,0.86,39.6,M,42.0,M,,*55
